[{"bonus": "0", "name": "103_AVENIDA EDUARDO DATO", "address": "AVENIDA EDUARDO DATO - Aprox. C/ San Bernardo", "latitude": "37.38443246347855", "fulladdress": "AVENIDA EDUARDO DATO - Aprox. C/ San Bernardo  ", "open": "1", "number": "103", "longitude": "-5.982738173371375"}, {"bonus": "0", "name": "001_GLORIETA OLIMPICA", "address": "GLORIETA OLIMPICA - Aprox. Concejal Alberto Jimenez-Becerril", "latitude": "37.4129235511391", "fulladdress": "GLORIETA OLIMPICA - Aprox. Concejal Alberto Jimenez-Becerril  ", "open": "1", "number": "1", "longitude": "-5.98890593824315"}, {"bonus": "0", "name": "004_CALLE LEONARDO DA VINCI", "address": "CALLE LEONARDO DA VINCI - Aprox C/ Thomas Alba Edison", "latitude": "37.41011155757378", "fulladdress": "CALLE LEONARDO DA VINCI - Aprox C/ Thomas Alba Edison  ", "open": "1", "number": "4", "longitude": "-6.005722268777397"}, {"bonus": "0", "name": "006_CAMINO DE LOS DESCUBRIMIENTOS", "address": "CAMINO DE LOS DESCUBRIMIENTOS - Aprox. Calle Isaac Newton", "latitude": "37.40661378981103", "fulladdress": "CAMINO DE LOS DESCUBRIMIENTOS - Aprox. Calle Isaac Newton  ", "open": "1", "number": "6", "longitude": "-6.002977947581603"}, {"bonus": "0", "name": "007_CALLE AMERICO VESPUCIO", "address": "CALLE AMERICO VESPUCIO - Aprox. Calle de Jacques Cousteau", "latitude": "37.4074694906696", "fulladdress": "CALLE AMERICO VESPUCIO - Aprox. Calle de Jacques Cousteau  ", "open": "1", "number": "7", "longitude": "-6.007603350403363"}, {"bonus": "0", "name": "008_CALLE AMERICO VESPUCIO", "address": "CALLE AMERICO VESPUCIO - Aprox. C/ Gregor Mendel", "latitude": "37.40096938285411", "fulladdress": "CALLE AMERICO VESPUCIO - Aprox. C/ Gregor Mendel  ", "open": "1", "number": "8", "longitude": "-6.009381735376187"}, {"bonus": "0", "name": "010_CALLE JOSE DIAZ", "address": "CALLE JOSE DIAZ - Aprox. Avda Concejal Alberto Jimenez-Becerril", "latitude": "37.40938502560925", "fulladdress": "CALLE JOSE DIAZ - Aprox. Avda Concejal Alberto Jimenez-Becerril  ", "open": "1", "number": "10", "longitude": "-5.990766008714238"}, {"bonus": "0", "name": "011_CALLE AVICENA", "address": "CALLE AVICENA - Aprox. calle Avenzoar", "latitude": "37.40714288389139", "fulladdress": "CALLE AVICENA - Aprox. calle Avenzoar  ", "open": "1", "number": "11", "longitude": "-5.992590299734184"}, {"bonus": "0", "name": "012_PLAZA DUQUESA DE ALBA", "address": "PLAZA DUQUESA DE ALBA - Puente de la Barqueta", "latitude": "37.40386953660558", "fulladdress": "PLAZA DUQUESA DE ALBA - Puente de la Barqueta  ", "open": "1", "number": "12", "longitude": "-5.994904227249628"}, {"bonus": "0", "name": "014_AVENIDA SANCHEZ PIZJUAN", "address": "AVENIDA SANCHEZ PIZJUAN - Facultad de Medicina", "latitude": "37.4064737057759", "fulladdress": "AVENIDA SANCHEZ PIZJUAN - Facultad de Medicina  ", "open": "1", "number": "14", "longitude": "-5.989118739088445"}, {"bonus": "0", "name": "015_CALLE DR MARANON", "address": "CALLE DR MARANON - Aprox. C/ San Juan de Ribera", "latitude": "37.40604157176221", "fulladdress": "CALLE DR MARANON - Aprox. C/ San Juan de Ribera  ", "open": "1", "number": "15", "longitude": "-5.985733700014785"}, {"bonus": "0", "name": "016_CALLE DE MANUEL VILLALOBOS", "address": "CALLE DE MANUEL VILLALOBOS - Aprox. C/ Sor Francisca Dorotea", "latitude": "37.40705079945115", "fulladdress": "CALLE DE MANUEL VILLALOBOS - Aprox. C/ Sor Francisca Dorotea  ", "open": "1", "number": "16", "longitude": "-5.982430505819379"}, {"bonus": "0", "name": "017_CALLE DE MADRESELVA", "address": "CALLE DE MADRESELVA - Aprox. Ronda de Pio XII", "latitude": "37.40715155556869", "fulladdress": "CALLE DE MADRESELVA - Aprox. Ronda de Pio XII  ", "open": "1", "number": "17", "longitude": "-5.978840172776446"}, {"bonus": "0", "name": "019_PARLAMENTO", "address": "PARLAMENTO - Aprox. C/ Don Fadrique", "latitude": "37.40332753658549", "fulladdress": "PARLAMENTO - Aprox. C/ Don Fadrique  ", "open": "1", "number": "19", "longitude": "-5.989037206345736"}, {"bonus": "0", "name": "020_CALLE SAN JUAN DE RIBERA", "address": "CALLE SAN JUAN DE RIBERA - Aprox. C/ Fray Isidoro de Sevilla", "latitude": "37.40486954365218", "fulladdress": "CALLE SAN JUAN DE RIBERA - Aprox. C/ Fray Isidoro de Sevilla  ", "open": "1", "number": "20", "longitude": "-5.986537198461927"}, {"bonus": "0", "name": "022_AVENIDA DE LLANES", "address": "AVENIDA DE LLANES - Aprox. Avda de Miraflores", "latitude": "37.40512954896668", "fulladdress": "AVENIDA DE LLANES - Aprox. Avda de Miraflores  ", "open": "1", "number": "22", "longitude": "-5.974831157557763"}, {"bonus": "0", "name": "023_PARLAMENTO", "address": "PARLAMENTO - Aprox. C/ San Juan de Ribera", "latitude": "37.40333753697895", "fulladdress": "PARLAMENTO - Aprox. C/ San Juan de Ribera  ", "open": "1", "number": "23", "longitude": "-5.98787920228648"}, {"bonus": "0", "name": "027_AVENIDA DE LLANES", "address": "AVENIDA DE LLANES - Aprox C/ Escultor Francisco Buiza", "latitude": "37.40387754497416", "fulladdress": "AVENIDA DE LLANES - Aprox C/ Escultor Francisco Buiza  ", "open": "1", "number": "27", "longitude": "-5.972090147223454"}, {"bonus": "0", "name": "029_CARRETERA DE CARMONA", "address": "CARRETERA DE CARMONA - Aprox. Avda de Llanes", "latitude": "37.40246354004471", "fulladdress": "CARRETERA DE CARMONA - Aprox. Avda de Llanes  ", "open": "1", "number": "29", "longitude": "-5.970145139589757"}, {"bonus": "0", "name": "035_ALAMEDA DE HERCULES", "address": "ALAMEDA DE HERCULES - Aprox. Calle Peris Mencheta", "latitude": "37.40068252435128", "fulladdress": "ALAMEDA DE HERCULES - Aprox. Calle Peris Mencheta  ", "open": "1", "number": "35", "longitude": "-5.993630220939186"}, {"bonus": "0", "name": "036_CALLE SAN VICENTE", "address": "CALLE SAN VICENTE - Aprox. C/ Guadalquivir", "latitude": "37.40050052188098", "fulladdress": "CALLE SAN VICENTE - Aprox. C/ Guadalquivir  ", "open": "1", "number": "36", "longitude": "-5.998403237581298"}, {"bonus": "0", "name": "040_AVENIDA REINA MERCEDES", "address": "AVENIDA REINA MERCEDES - Aprox. Glorieta Alcalde de Parias Merry", "latitude": "37.35635082669173", "fulladdress": "AVENIDA REINA MERCEDES - Aprox. Glorieta Alcalde de Parias Merry  ", "open": "1", "number": "40", "longitude": "-5.986459877403918"}, {"bonus": "0", "name": "042_PLAZA CRONISTA", "address": "PLAZA CRONISTA - Aprox. C/ Divina Pastora", "latitude": "37.3987059174522", "fulladdress": "PLAZA CRONISTA - Aprox. C/ Divina Pastora  ", "open": "1", "number": "42", "longitude": "-5.989460016816095"}, {"bonus": "0", "name": "043_RONDA CAPUCHINOS", "address": "RONDA CAPUCHINOS - Aprox. C/ Maestro Quiroga", "latitude": "37.39915608743537", "fulladdress": "RONDA CAPUCHINOS - Aprox. C/ Maestro Quiroga  ", "open": "1", "number": "43", "longitude": "-5.982736630025496"}, {"bonus": "0", "name": "044_RONDA CAPUCHINOS", "address": "RONDA CAPUCHINOS - Aprox. C/ Corinto", "latitude": "37.39833897229492", "fulladdress": "RONDA CAPUCHINOS - Aprox. C/ Corinto  ", "open": "1", "number": "44", "longitude": "-5.981640026763738"}, {"bonus": "0", "name": "046_PLAZA DEL PELICANO", "address": "PLAZA DEL PELICANO - Aprox. C/ Enladrilladas", "latitude": "37.39759351559074", "fulladdress": "PLAZA DEL PELICANO - Aprox. C/ Enladrilladas  ", "open": "1", "number": "46", "longitude": "-5.983873184934495"}, {"bonus": "0", "name": "048_CALLE CHURRUCA", "address": "CALLE CHURRUCA - Aprox. C/ Gonzales Cuadrado", "latitude": "37.39715651121527", "fulladdress": "CALLE CHURRUCA - Aprox. C/ Gonzales Cuadrado  ", "open": "1", "number": "48", "longitude": "-5.991066209916829"}, {"bonus": "0", "name": "049_ALAMEDA DE HERCULES", "address": "ALAMEDA DE HERCULES - Aprox. C/ Amor de Dios", "latitude": "37.39686550900737", "fulladdress": "ALAMEDA DE HERCULES - Aprox. C/ Amor de Dios  ", "open": "1", "number": "49", "longitude": "-5.99392721978722"}, {"bonus": "0", "name": "051_AVENIDA TORNEO", "address": "AVENIDA TORNEO - Aprox. C/ Luis Rey Romero", "latitude": "37.3955195005648", "fulladdress": "AVENIDA TORNEO - Aprox. C/ Luis Rey Romero  ", "open": "1", "number": "51", "longitude": "-6.002321248467498"}, {"bonus": "0", "name": "052_CALLE DEL INCA GARCILASO", "address": "CALLE DEL INCA GARCILASO - Aprox. C/ Jeronimo de Aguilar", "latitude": "37.39422649248208", "fulladdress": "CALLE DEL INCA GARCILASO - Aprox. C/ Jeronimo de Aguilar  ", "open": "1", "number": "52", "longitude": "-6.010309275759171"}, {"bonus": "0", "name": "055_CALLE DE MARIA AUXILIADORA", "address": "CALLE DE MARIA AUXILIADORA - Aprox. C/ Gonzalo de Bilbao", "latitude": "37.3933184985689", "fulladdress": "CALLE DE MARIA AUXILIADORA - Aprox. C/ Gonzalo de Bilbao  ", "open": "1", "number": "55", "longitude": "-5.983766182098622"}, {"bonus": "0", "name": "056_PLAZA JERONIMO DE CORDOBA", "address": "PLAZA JERONIMO DE CORDOBA- Aprox. C/ Escuelas Pias", "latitude": "37.39308649644441", "fulladdress": "PLAZA JERONIMO DE CORDOBA- Aprox. C/ Escuelas Pias  ", "open": "1", "number": "56", "longitude": "-5.98703819345455"}, {"bonus": "0", "name": "057_PLAZA CRISTO DE BURGOS", "address": "PLAZA CRISTO DE BURGOS - Pza de San Pedro", "latitude": "37.39231861674279", "fulladdress": "PLAZA CRISTO DE BURGOS - Pza de San Pedro  ", "open": "1", "number": "57", "longitude": "-5.989705187094715"}, {"bonus": "0", "name": "058_CALLE REGINA", "address": "CALLE REGINA - Aprox. Pza de la Encarnacion", "latitude": "37.39436722277961", "fulladdress": "CALLE REGINA - Aprox. Pza de la Encarnacion  ", "open": "1", "number": "58", "longitude": "-5.991544993040244"}, {"bonus": "0", "name": "062_PLAZA DE ARMAS", "address": "PLAZA DE ARMAS - Avda Torneo (estacion de autobuses)", "latitude": "37.39106148246272", "fulladdress": "PLAZA DE ARMAS - Avda Torneo (estacion de autobuses)  ", "open": "1", "number": "62", "longitude": "-6.003150248813141"}, {"bonus": "0", "name": "064_CALLE CUESTA DE ROSARIO", "address": "CALLE CUESTA DE ROSARIO - Pza de la Pescaderia", "latitude": "37.38985648205481", "fulladdress": "CALLE CUESTA DE ROSARIO - Pza de la Pescaderia  ", "open": "1", "number": "64", "longitude": "-5.991125205922743"}, {"bonus": "0", "name": "069_CALLE JOSE LAGUILLO", "address": "CALLE JOSE LAGUILLO - Aprox. Pablo Iglesias", "latitude": "37.39201049535389", "fulladdress": "CALLE JOSE LAGUILLO - Aprox. Pablo Iglesias  ", "open": "1", "number": "69", "longitude": "-5.978293162147303"}, {"bonus": "0", "name": "070_ESTACION RENFE SANTA JUSTA", "address": "ESTACION RENFE SANTA JUSTA", "latitude": "37.39115849280489", "fulladdress": "ESTACION RENFE SANTA JUSTA  ", "open": "1", "number": "70", "longitude": "-5.975971153511849"}, {"bonus": "0", "name": "073_PLAZA SAN AGUSTIN", "address": "PLAZA SAN AGUSTIN - Aprox. C/ Concepcion", "latitude": "37.38951386231434", "fulladdress": "PLAZA SAN AGUSTIN - Aprox. C/ Concepcion  ", "open": "1", "number": "73", "longitude": "-5.984362789545622"}, {"bonus": "0", "name": "075_PLAZA SAN FRANCISCO", "address": "PLAZA SAN FRANCISCO - Aprox C/ Hernando Colon", "latitude": "37.3879973777001", "fulladdress": "PLAZA SAN FRANCISCO - Aprox C/ Hernando Colon  ", "open": "1", "number": "75", "longitude": "-5.993587446638155"}, {"bonus": "0", "name": "077_PLAZA CHAPINA", "address": "PLAZA CHAPINA - Aprox. Hotel Abba Triana", "latitude": "37.38962947512317", "fulladdress": "PLAZA CHAPINA - Aprox. Hotel Abba Triana  ", "open": "1", "number": "77", "longitude": "-6.007581263540937"}, {"bonus": "0", "name": "078_CALLE ALFARERIA", "address": "CALLE ALFARERIA - Aprox. Ronda de Triana", "latitude": "37.38857113316299", "fulladdress": "CALLE ALFARERIA - Aprox. Ronda de Triana  ", "open": "1", "number": "78", "longitude": "-6.010282378350756"}, {"bonus": "0", "name": "079_PLAZA DE LAS MERCEDARIAS", "address": "PLAZA DE LAS MERCEDARIAS - Aprox. C/ Ibarra", "latitude": "37.38832647749413", "fulladdress": "PLAZA DE LAS MERCEDARIAS - Aprox. C/ Ibarra  ", "open": "1", "number": "79", "longitude": "-5.98690419023187"}, {"bonus": "0", "name": "081_CALLE LUIS MONTOTO", "address": "CALLE LUIS MONTOTO - Aprox. C/ Benitos Mas y Prat", "latitude": "37.38715620267129", "fulladdress": "CALLE LUIS MONTOTO - Aprox. C/ Benitos Mas y Prat  ", "open": "1", "number": "81", "longitude": "-5.971016767894659"}, {"bonus": "0", "name": "085_PASEO CATALINA RIBERA", "address": "PASEO CATALINA RIBERA - Frente a la Diputacion Provincial", "latitude": "37.38535146566221", "fulladdress": "PASEO CATALINA RIBERA - Frente a la Diputacion Provincial  ", "open": "1", "number": "85", "longitude": "-5.986785188099708"}, {"bonus": "0", "name": "092_RONDA DE TRIANA", "address": "RONDA DE TRIANA - Aprox. C/ de Manuel Arellano", "latitude": "37.38583846975227", "fulladdress": "RONDA DE TRIANA - Aprox. C/ de Manuel Arellano  ", "open": "1", "number": "92", "longitude": "-6.011220377621846"}, {"bonus": "0", "name": "093_RONDA DE TRIANA", "address": "RONDA DE TRIANA - Aprox. C/ San Vicente de Paul", "latitude": "37.38312344793415", "fulladdress": "RONDA DE TRIANA - Aprox. C/ San Vicente de Paul  ", "open": "1", "number": "93", "longitude": "-6.010876271362328"}, {"bonus": "0", "name": "098_AVENIDA DE ROMA", "address": "AVENIDA DE ROMA - Puerta de Jerez", "latitude": "37.382043350305", "fulladdress": "AVENIDA DE ROMA - Puerta de Jerez  ", "open": "1", "number": "98", "longitude": "-5.993030169261488"}, {"bonus": "0", "name": "100_PASEO CATALINA RIBERA", "address": "PASEO CATALINA RIBERA - Aprox. C/ San Fernando", "latitude": "37.38151614833374", "fulladdress": "PASEO CATALINA RIBERA - Aprox. C/ San Fernando  ", "open": "1", "number": "100", "longitude": "-5.98899864813969"}, {"bonus": "0", "name": "101_PRADO DE SAN SEBASTIAN", "address": "PRADO DE SAN SEBASTIAN - Estacion de autobuses", "latitude": "37.38111568185353", "fulladdress": "PRADO DE SAN SEBASTIAN - Estacion de autobuses  ", "open": "1", "number": "101", "longitude": "-5.986949751279455"}, {"bonus": "0", "name": "104_AVENIDA EDUARDO DATO", "address": "AVENIDA EDUARDO DATO - Aprox. C/ Fuenteovejuna", "latitude": "37.38413592692444", "fulladdress": "AVENIDA EDUARDO DATO - Aprox. C/ Fuenteovejuna  ", "open": "1", "number": "104", "longitude": "-5.979676676296534"}, {"bonus": "0", "name": "107_CALLE LUIS MORALES", "address": "CALLE LUIS MORALES - Aprox. Nervion Plaza", "latitude": "37.38425946651307", "fulladdress": "CALLE LUIS MORALES - Aprox. Nervion Plaza  ", "open": "1", "number": "107", "longitude": "-5.972591137677613"}, {"bonus": "0", "name": "108_AVENIDA EDUARDO DATO", "address": "AVENIDA EDUARDO DATO - Aprox. Avda de San Francisco Javier", "latitude": "37.38285250345726", "fulladdress": "AVENIDA EDUARDO DATO - Aprox. Avda de San Francisco Javier  ", "open": "1", "number": "108", "longitude": "-5.973249491935667"}, {"bonus": "0", "name": "109_AVENIDA SAN FRANCISCO JAVIER", "address": "AVENIDA SAN FRANCISCO JAVIER - Aprox. C/ Camilo Jose Cela", "latitude": "37.37988413609134", "fulladdress": "AVENIDA SAN FRANCISCO JAVIER - Aprox. C/ Camilo Jose Cela  ", "open": "1", "number": "109", "longitude": "-5.974382770011586"}, {"bonus": "0", "name": "113_PLAZA SAN MARTIN DE PORRES", "address": "PLAZA SAN MARTIN DE PORRES - Aprox. Avda Alvar Nunez", "latitude": "37.38077843919005", "fulladdress": "PLAZA SAN MARTIN DE PORRES - Aprox. Avda Alvar Nunez  ", "open": "1", "number": "113", "longitude": "-6.009179264054355"}, {"bonus": "0", "name": "118_PLAZA DE CUBA", "address": "PLAZA DE CUBA - Aprox. Puente de San Telmo", "latitude": "37.37979141629219", "fulladdress": "PLAZA DE CUBA - Aprox. Puente de San Telmo  ", "open": "1", "number": "118", "longitude": "-5.997107796424417"}, {"bonus": "0", "name": "125_AVENIDA SAN FRANCISCO JAVIER", "address": "AVENIDA SAN FRANCISCO JAVIER - Aprox. Avda De Ramon y Cajal", "latitude": "37.37740643831275", "fulladdress": "AVENIDA SAN FRANCISCO JAVIER - Aprox. Avda De Ramon y Cajal  ", "open": "1", "number": "125", "longitude": "-5.974900141818838"}, {"bonus": "0", "name": "129_CALLE VIRGEN DE LUJAN", "address": "CALLE VIRGEN DE LUJAN - Aprox. Virgen de la Victoria", "latitude": "37.37466841725404", "fulladdress": "CALLE VIRGEN DE LUJAN - Aprox. Virgen de la Victoria  ", "open": "1", "number": "129", "longitude": "-6.002455236928109"}, {"bonus": "0", "name": "130_GLORIETA REPUBLICA DOMINICANA", "address": "GLORIETA REPUBLICA DOMINICANA - Aprox. C/ Lopez de Gomara", "latitude": "37.37574541795484", "fulladdress": "GLORIETA REPUBLICA DOMINICANA - Aprox. C/ Lopez de Gomara  ", "open": "1", "number": "130", "longitude": "-6.005247727302032"}, {"bonus": "0", "name": "132_CALLE PAEZ DE RIVERA", "address": "CALLE PAEZ DE RIVERA - Aprox. Paseo de la Palmera", "latitude": "37.36361937962884", "fulladdress": "CALLE PAEZ DE RIVERA - Aprox. Paseo de la Palmera  ", "open": "1", "number": "132", "longitude": "-5.984785168525709"}, {"bonus": "0", "name": "133_AVENIDA SANTA FE", "address": "AVENIDA SANTA FE - Aprox. C/ Virgen de la Oliva", "latitude": "37.37403941410158", "fulladdress": "AVENIDA SANTA FE - Aprox. C/ Virgen de la Oliva  ", "open": "1", "number": "133", "longitude": "-6.004198242683363"}, {"bonus": "0", "name": "135_CALLE VIRGEN DE LUJAN", "address": "CALLE VIRGEN DE LUJAN - Aprox. Glorieta las Cigarreras", "latitude": "37.37465142036539", "fulladdress": "CALLE VIRGEN DE LUJAN - Aprox. Glorieta las Cigarreras  ", "open": "1", "number": "135", "longitude": "-5.993801206544696"}, {"bonus": "0", "name": "138_CALLE RAMON CARANDE", "address": "CALLE RAMON CARANDE - Aprox. C/ San Salvador", "latitude": "37.37437042470977", "fulladdress": "CALLE RAMON CARANDE - Aprox. C/ San Salvador  ", "open": "1", "number": "138", "longitude": "-5.978934154215835"}, {"bonus": "0", "name": "139_AVENIDA DIEGO MARTINEZ BARRIO", "address": "AVENIDA DIEGO MARTINEZ BARRIO - Aprox. Avda Gal Garcia de la Herranz", "latitude": "37.3750752588637", "fulladdress": "AVENIDA DIEGO MARTINEZ BARRIO - Aprox. Avda Gal Garcia de la Herranz  ", "open": "1", "number": "139", "longitude": "-5.975863125578401"}, {"bonus": "0", "name": "142_CALLE RAMON DE CARRANZA", "address": "CALLE RAMON DE CARRANZA - Aprox. C/ Asuncion", "latitude": "37.37165140713105", "fulladdress": "CALLE RAMON DE CARRANZA - Aprox. C/ Asuncion  ", "open": "1", "number": "142", "longitude": "-5.997212216783402"}, {"bonus": "0", "name": "143_CALLE RAMON DE CARRANZA", "address": "CALLE RAMON DE CARRANZA - Aprox. C/ Virgen de la Oliva", "latitude": "37.37172440518047", "fulladdress": "CALLE RAMON DE CARRANZA - Aprox. C/ Virgen de la Oliva  ", "open": "1", "number": "143", "longitude": "-6.00331223823691"}, {"bonus": "0", "name": "145_AVENIDA REINA MERCEDES", "address": "AVENIDA REINA MERCEDES - Aprox. C/ Profesor Garcia Gonzalez", "latitude": "37.36023322886115", "fulladdress": "AVENIDA REINA MERCEDES - Aprox. C/ Profesor Garcia Gonzalez  ", "open": "1", "number": "145", "longitude": "-5.986318234050904"}, {"bonus": "0", "name": "146_AVENIDA REINA MERCEDES", "address": "AVENIDA REINA MERCEDES - Aprox. C/ Profesor Garcia Gonzalez", "latitude": "37.36010062641139", "fulladdress": "AVENIDA REINA MERCEDES - Aprox. C/ Profesor Garcia Gonzalez  ", "open": "1", "number": "146", "longitude": "-5.986312974875395"}, {"bonus": "0", "name": "148_CALLE THARSIS", "address": "CALLE THARSIS - Aprox. C/ Aorno", "latitude": "37.39876767567268", "fulladdress": "CALLE THARSIS - Aprox. C/ Aorno  ", "open": "1", "number": "148", "longitude": "-5.973182395926595"}, {"bonus": "0", "name": "149_CALLE ARROYO", "address": "CALLE ARROYO - Aprox. C/ Tena", "latitude": "37.397829929383", "fulladdress": "CALLE ARROYO - Aprox. C/ Tena  ", "open": "1", "number": "149", "longitude": "-5.97567172039552"}, {"bonus": "0", "name": "152_CALLE SAMANIEGO", "address": "CALLE SAMANIEGO - Aprox. C/ Esperanza de la Trinidad", "latitude": "37.3957905118738", "fulladdress": "CALLE SAMANIEGO - Aprox. C/ Esperanza de la Trinidad  ", "open": "1", "number": "152", "longitude": "-5.97437315057576"}, {"bonus": "0", "name": "154_AVENIDA KANSAS CITY", "address": "AVENIDA KANSAS CITY - Aprox. C/ Naranjito de Triana", "latitude": "37.39483651024631", "fulladdress": "AVENIDA KANSAS CITY - Aprox. C/ Naranjito de Triana  ", "open": "1", "number": "154", "longitude": "-5.96842612917054"}, {"bonus": "0", "name": "155_AVENIDA KANSAS CITY", "address": "AVENIDA KANSAS CITY - Aprox. Avda El Greco", "latitude": "37.39291050171398", "fulladdress": "AVENIDA KANSAS CITY - Aprox. Avda El Greco  ", "open": "1", "number": "155", "longitude": "-5.970739136171973"}, {"bonus": "0", "name": "161_AVENIDA ALCALDE MANUEL DEL VALLE", "address": "AVENIDA ALCALDE MANUEL DEL VALLE - Aprox. C/ Baltasar de Alcazar", "latitude": "37.40000053060032", "fulladdress": "AVENIDA ALCALDE MANUEL DEL VALLE - Aprox. C/ Baltasar de Alcazar  ", "open": "1", "number": "161", "longitude": "-5.969103134518509"}, {"bonus": "0", "name": "009_CAMINO DE LOS DESCUBRIMIENTOS", "address": "CAMINO DE LOS DESCUBRIMIENTOS - Aprox. C/ Albert Einstein", "latitude": "37.40332453110276", "fulladdress": "CAMINO DE LOS DESCUBRIMIENTOS - Aprox. C/ Albert Einstein  ", "open": "1", "number": "9", "longitude": "-6.004020258912579"}, {"bonus": "0", "name": "122_CALLE ENRAMADILLA", "address": "CALLE ENRAMADILLA - Aprox. C/ Balbino Marron", "latitude": "37.37848444133301", "fulladdress": "CALLE ENRAMADILLA - Aprox. C/ Balbino Marron  ", "open": "1", "number": "122", "longitude": "-5.978389154681133"}, {"bonus": "0", "name": "124_CALLE ENRAMADILLA", "address": "CALLE ENRAMADILLA - Aprox. C/ Barrau", "latitude": "37.37773043874411", "fulladdress": "CALLE ENRAMADILLA - Aprox. C/ Barrau  ", "open": "1", "number": "124", "longitude": "-5.977244150228713"}, {"bonus": "0", "name": "157_AVENIDA CARDENAL BUENO MONREAL", "address": "AVENIDA CARDENAL BUENO MONREAL - Aprox. Avda Ramon Carande", "latitude": "37.36979940542447", "fulladdress": "AVENIDA CARDENAL BUENO MONREAL - Aprox. Avda Ramon Carande  ", "open": "1", "number": "157", "longitude": "-5.978194722821982"}, {"bonus": "0", "name": "159_AVENIDA CARDENAL BUENO MONREAL", "address": "AVENIDA CARDENAL BUENO MONREAL - Aprox. Avda Manuel Siurot", "latitude": "37.36804539727759", "fulladdress": "AVENIDA CARDENAL BUENO MONREAL - Aprox. Avda Manuel Siurot  ", "open": "1", "number": "159", "longitude": "-5.984854171329494"}, {"bonus": "0", "name": "140_CALLE FELIPE II", "address": "CALLE FELIPE II - Aprox. Avda Diego Martinez Barrio", "latitude": "37.37237041730389", "fulladdress": "CALLE FELIPE II - Aprox. Avda Diego Martinez Barrio  ", "open": "1", "number": "140", "longitude": "-5.977362147544427"}, {"bonus": "0", "name": "116_CALLE MANUEL SIUROT", "address": "CALLE MANUEL SIUROT - Aprox. Hospital Universitario Virgen del Rocio", "latitude": "37.36143037206055", "fulladdress": "CALLE MANUEL SIUROT - Aprox. Hospital Universitario Virgen del Rocio  ", "open": "1", "number": "116", "longitude": "-5.981603156091943"}, {"bonus": "0", "name": "141_CALLE FELIPE II", "address": "CALLE FELIPE II - Aprox. C/ Ramon Carande", "latitude": "37.37173344957564", "fulladdress": "CALLE FELIPE II - Aprox. C/ Ramon Carande  ", "open": "1", "number": "141", "longitude": "-5.981895354240737"}, {"bonus": "0", "name": "021_CALLE MANUEL VILLALOBOS", "address": "CALLE MANUEL VILLALOBOS - Aprox. C/ Madre San Marcelo", "latitude": "37.40547354789233", "fulladdress": "CALLE MANUEL VILLALOBOS - Aprox. C/ Madre San Marcelo  ", "open": "1", "number": "21", "longitude": "-5.981527181236149"}, {"bonus": "0", "name": "025_AVENIDA DE LA CRUZ ROJA", "address": "AVENIDA DE LA CRUZ ROJA - Aprox. C/ Albaida", "latitude": "37.40313253870445", "fulladdress": "AVENIDA DE LA CRUZ ROJA - Aprox. C/ Albaida  ", "open": "1", "number": "25", "longitude": "-5.981109178424791"}, {"bonus": "0", "name": "031_AVENIDA DE MIRAFLORES", "address": "AVENIDA DE MIRAFLORES - Aprox. C/ Albaida", "latitude": "37.40054152885159", "fulladdress": "AVENIDA DE MIRAFLORES - Aprox. C/ Albaida  ", "open": "1", "number": "31", "longitude": "-5.979781172277264"}, {"bonus": "0", "name": "053_CALLE REYES CATOLICOS", "address": "CALLE REYES CATOLICOS - Aprox. C/ Gravina", "latitude": "37.38934147689296", "fulladdress": "CALLE REYES CATOLICOS - Aprox. C/ Gravina  ", "open": "1", "number": "53", "longitude": "-5.999605235382445"}, {"bonus": "0", "name": "065_CALLE ALHONDIGA", "address": "CALLE ALHONDIGA - Aprox. Card. Cervantes", "latitude": "37.3912994889083", "fulladdress": "CALLE ALHONDIGA - Aprox. Card. Cervantes  ", "open": "1", "number": "65", "longitude": "-5.988140196280803"}, {"bonus": "0", "name": "072_CALLE AMADOR DE LOS RIOS", "address": "CALLE AMADOR DE LOS RIOS - Aprox. C/ Lope de Vega", "latitude": "37.39071248853365", "fulladdress": "CALLE AMADOR DE LOS RIOS - Aprox. C/ Lope de Vega  ", "open": "1", "number": "72", "longitude": "-5.982768177096753"}, {"bonus": "0", "name": "074_PLAZA PILATOS", "address": "PLAZA PILATOS - Aprox. C/ San Esteban", "latitude": "37.38977148326459", "fulladdress": "PLAZA PILATOS - Aprox. C/ San Esteban  ", "open": "1", "number": "74", "longitude": "-5.986897191039803"}, {"bonus": "0", "name": "083_AVENIDA LA BUHAIRA", "address": "AVENIDA LA BUHAIRA - Aprox. Avda Luis Montoto", "latitude": "37.38695547526851", "fulladdress": "AVENIDA LA BUHAIRA - Aprox. Avda Luis Montoto  ", "open": "1", "number": "83", "longitude": "-5.978051158384551"}, {"bonus": "0", "name": "084_CALLE JOSE MARIA MORENO GALVAN", "address": "CALLE JOSE MARIA MORENO GALVAN - Aprox. C/ Juan Antonio Cabestany", "latitude": "37.38735047500482", "fulladdress": "CALLE JOSE MARIA MORENO GALVAN - Aprox. C/ Juan Antonio Cabestany  ", "open": "1", "number": "84", "longitude": "-5.983068176211725"}, {"bonus": "0", "name": "097_PASEO DE CRISTOBAL COLON", "address": "PASEO DE CRISTOBAL COLON - Aprox. Torre del Oro", "latitude": "37.38153544721096", "fulladdress": "PASEO DE CRISTOBAL COLON - Aprox. Torre del Oro  ", "open": "1", "number": "97", "longitude": "-5.995552216661944"}, {"bonus": "0", "name": "106_AVENIDA EDUARDO DATO", "address": "AVENIDA EDUARDO DATO - Aprox. C/ Oscar Carvallo", "latitude": "37.38379746288346", "fulladdress": "AVENIDA EDUARDO DATO - Aprox. C/ Oscar Carvallo  ", "open": "1", "number": "106", "longitude": "-5.977454154468565"}, {"bonus": "0", "name": "131_CALLE TABLADILLA", "address": "CALLE TABLADILLA - Aprox. C/ Cardenal Ilundain", "latitude": "37.36475038537372", "fulladdress": "CALLE TABLADILLA - Aprox. C/ Cardenal Ilundain  ", "open": "1", "number": "131", "longitude": "-5.981452157485012"}, {"bonus": "0", "name": "134_CALLE VIRGEN DE LUJAN", "address": "CALLE VIRGEN DE LUJAN - Aprox. C/ Asuncion", "latitude": "37.3747704191009", "fulladdress": "CALLE VIRGEN DE LUJAN - Aprox. C/ Asuncion  ", "open": "1", "number": "134", "longitude": "-5.998536223231469"}, {"bonus": "0", "name": "137_AVENIDA DE LA BORBOLLA", "address": "AVENIDA DE LA BORBOLLA - Aprox. C/ Porvenir", "latitude": "37.37375841984501", "fulladdress": "AVENIDA DE LA BORBOLLA - Aprox. C/ Porvenir  ", "open": "1", "number": "137", "longitude": "-5.985517176959137"}, {"bonus": "0", "name": "150_CALLE SAN JUAN BOSCO", "address": "CALLE SAN JUAN BOSCO - Aprox. C/ Arroyo", "latitude": "37.39674851413617", "fulladdress": "CALLE SAN JUAN BOSCO - Aprox. C/ Arroyo  ", "open": "1", "number": "150", "longitude": "-5.978634166071806"}, {"bonus": "0", "name": "024_CALLE LEON XIII", "address": "CALLE LEON XIII - Aprox. C/ Fray Isidoro de Sevilla", "latitude": "37.40403554103479", "fulladdress": "CALLE LEON XIII - Aprox. C/ Fray Isidoro de Sevilla  ", "open": "1", "number": "24", "longitude": "-5.984592191160378"}, {"bonus": "0", "name": "032_CALLE MUNOZ LEON", "address": "CALLE MUNOZ LEON - Aprox. C/ Morera", "latitude": "37.40201953235749", "fulladdress": "CALLE MUNOZ LEON - Aprox. C/ Morera  ", "open": "1", "number": "32", "longitude": "-5.986323196073661"}, {"bonus": "0", "name": "080_CALLE LUIS MONTOTO", "address": "CALLE LUIS MONTOTO - Aprox. C/ Alberto Duero", "latitude": "37.3876274768589", "fulladdress": "CALLE LUIS MONTOTO - Aprox. C/ Alberto Duero  ", "open": "1", "number": "80", "longitude": "-5.98102716921146"}, {"bonus": "0", "name": "082_CALLE LUIS MONTOTO", "address": "CALLE LUIS MONTOTO - Aprox. C/ Maese Farfan", "latitude": "37.38709847701637", "fulladdress": "CALLE LUIS MONTOTO - Aprox. C/ Maese Farfan  ", "open": "1", "number": "82", "longitude": "-5.974843147214583"}, {"bonus": "0", "name": "102_CALLE JUAN DE MATA CARRIAZO", "address": "CALLE JUAN DE MATA CARRIAZO - Aprox. antigua estacion San Bernardo", "latitude": "37.38273945636004", "fulladdress": "CALLE JUAN DE MATA CARRIAZO - Aprox. antigua estacion San Bernardo  ", "open": "1", "number": "102", "longitude": "-5.983720175839885"}, {"bonus": "0", "name": "110_CIUDAD DE RONDA", "address": "Ciudad de Ronda - Aprox. Avda Carlos V", "latitude": "37.37972144428237", "fulladdress": "Ciudad de Ronda - Aprox. Avda Carlos V  ", "open": "1", "number": "110", "longitude": "-5.983801174387398"}, {"bonus": "0", "name": "005_CAMINO DE LOS DESCUBRIMIENTOS", "address": "CAMINO DE LOS DESCUBRIMIENTOS - Aprox. C/ Thomas Alba Edison", "latitude": "37.41104356266495", "fulladdress": "CAMINO DE LOS DESCUBRIMIENTOS - Aprox. C/ Thomas Alba Edison  ", "open": "1", "number": "5", "longitude": "-6.001959256107801"}, {"bonus": "0", "name": "068_CALLE JUAN ANTONIO CABESTANY", "address": "CALLE JUAN ANTONIO CABESTANY - Aprox. Calle Jupiter", "latitude": "37.39029248788509", "fulladdress": "CALLE JUAN ANTONIO CABESTANY - Aprox. Calle Jupiter  ", "open": "1", "number": "68", "longitude": "-5.979964167018684"}, {"bonus": "0", "name": "119_AVENIDA DE CHILE", "address": "AVENIDA DE CHILE - Aprox. Costurero de la Reina", "latitude": "37.37740443203299", "fulladdress": "AVENIDA DE CHILE - Aprox. Costurero de la Reina  ", "open": "1", "number": "119", "longitude": "-5.991965201690994"}, {"bonus": "0", "name": "164_CALLE LUIS MONTOTO", "address": "CALLE LUIS MONTOTO - Aprox. C/ El Greco", "latitude": "37.38764935092401", "fulladdress": "CALLE LUIS MONTOTO - Aprox. C/ El Greco  ", "open": "1", "number": "164", "longitude": "-5.965655252045698"}, {"bonus": "0", "name": "166_RONDA DEL TAMARGUILLO", "address": "RONDA DEL TAMARGUILLO - Aprox. Centro Comercial Los Arcos", "latitude": "37.38859048869724", "fulladdress": "RONDA DEL TAMARGUILLO - Aprox. Centro Comercial Los Arcos  ", "open": "1", "number": "166", "longitude": "-5.959240093357595"}, {"bonus": "0", "name": "165_AVENIDA DE ANDALUCIA", "address": "AVENIDA DE ANDALUCIA - Aprox. Centro Comercial Los Arcos", "latitude": "37.38764548429808", "fulladdress": "AVENIDA DE ANDALUCIA - Aprox. Centro Comercial Los Arcos  ", "open": "1", "number": "165", "longitude": "-5.96095309881845"}, {"bonus": "0", "name": "112_AVDA ESPERANZA DE TRIANA", "address": "AVDA ESPERANZA DE TRIANA - Aprox. Plaza Amadeo Janone", "latitude": "37.3801534384526", "fulladdress": "AVDA ESPERANZA DE TRIANA - Aprox. Plaza Amadeo Janone  ", "open": "1", "number": "112", "longitude": "-6.004383246859136"}, {"bonus": "0", "name": "144_AVENIDA DE LA PALMERA", "address": "AVENIDA DE LA PALMERA - Aprox. Clinica de Fatima", "latitude": "37.36912633937041", "fulladdress": "AVENIDA DE LA PALMERA - Aprox. Clinica de Fatima  ", "open": "1", "number": "144", "longitude": "-5.988080397280193"}, {"bonus": "0", "name": "162_AVENIDA SOLEA", "address": "AVENIDA SOLEA - Aprox. C/ Media Granaina", "latitude": "37.39154049708111", "fulladdress": "AVENIDA SOLEA - Aprox. C/ Media Granaina  ", "open": "1", "number": "162", "longitude": "-5.96846612741093"}, {"bonus": "0", "name": "156_AVENIDA KANSAS CITY", "address": "AVENIDA KANSAS CITY - Aprox. C/ Baltasar Gracian", "latitude": "37.39145341109661", "fulladdress": "AVENIDA KANSAS CITY - Aprox. C/ Baltasar Gracian  ", "open": "1", "number": "156", "longitude": "-5.972761755091493"}, {"bonus": "0", "name": "076_PLAZA NUEVA", "address": "PLAZA NUEVA - Aprox. C/ Jaen", "latitude": "37.38893947673792", "fulladdress": "PLAZA NUEVA - Aprox. C/ Jaen  ", "open": "1", "number": "76", "longitude": "-5.995646221258141"}, {"bonus": "0", "name": "087_PLAZA NUEVA", "address": "PLAZA NUEVA - Aprox. C/ Tetuan", "latitude": "37.38896647697466", "fulladdress": "PLAZA NUEVA - Aprox. C/ Tetuan  ", "open": "1", "number": "87", "longitude": "-5.995294220038549"}, {"bonus": "0", "name": "121_CALLE DOCTOR PEDRO DE CASTRO", "address": "CALLE DOCTOR PEDRO DE CASTRO - Aprox. C/ Doc. Gabriel Sanchez", "latitude": "37.37715843473627", "fulladdress": "CALLE DOCTOR PEDRO DE CASTRO - Aprox. C/ Doc. Gabriel Sanchez  ", "open": "1", "number": "121", "longitude": "-5.981935166355452"}, {"bonus": "0", "name": "153_AVENIDA REINA MERCEDES", "address": "AVENIDA REINA MERCEDES - Aprox. Escuela de arquitectura", "latitude": "37.36297137649665", "fulladdress": "AVENIDA REINA MERCEDES - Aprox. Escuela de arquitectura  ", "open": "1", "number": "153", "longitude": "-5.986262173333679"}, {"bonus": "0", "name": "094_PLAZA DEL ZURRAQUE", "address": "PLAZA DEL ZURRAQUE - Aprox. C/ Doc. Jeronimo Pou", "latitude": "37.38336944986273", "fulladdress": "PLAZA DEL ZURRAQUE - Aprox. C/ Doc. Jeronimo Pou  ", "open": "1", "number": "94", "longitude": "-6.008294262440252"}, {"bonus": "0", "name": "038_CALLE DE INCA GARCILASO", "address": "CALLE DE INCA GARCILASO - Aprox. C/ Juan Antonio de Vizarron", "latitude": "37.3920814836453", "fulladdress": "CALLE DE INCA GARCILASO - Aprox. C/ Juan Antonio de Vizarron  ", "open": "1", "number": "38", "longitude": "-6.011051277130786"}, {"bonus": "0", "name": "114_GLORIETA PLUS ULTRA", "address": "GLORIETA PLUS ULTRA - Aprox. Estadio Manuel Ruiz de Lopera", "latitude": "37.35637235272571", "fulladdress": "GLORIETA PLUS ULTRA - Aprox. Estadio Manuel Ruiz de Lopera  ", "open": "1", "number": "114", "longitude": "-5.979262144945245"}, {"bonus": "0", "name": "136_CALLE ASUNCION", "address": "CALLE ASUNCION - Aprox. C/ Virgen de la Antigua", "latitude": "37.37311941284756", "fulladdress": "CALLE ASUNCION - Aprox. C/ Virgen de la Antigua  ", "open": "1", "number": "136", "longitude": "-5.997610219028108"}, {"bonus": "0", "name": "018_AVENIDA EDUARDO DATO", "address": "AVENIDA EDUARDO DATO - Aprox. C/ Marques del Nervion", "latitude": "37.38207545943934", "fulladdress": "AVENIDA EDUARDO DATO - Aprox. C/ Marques del Nervion  ", "open": "1", "number": "18", "longitude": "-5.968121120738779"}, {"bonus": "0", "name": "128_VIRGEN DE LORETO", "address": "Virgen de Loreto - Aprox. C/ Arcos", "latitude": "37.37645342505249", "fulladdress": "Virgen de Loreto - Aprox. C/ Arcos  ", "open": "1", "number": "128", "longitude": "-6.000632231559362"}, {"bonus": "0", "name": "168_AVENIDA RAMON Y CAJAL", "address": "AVENIDA RAMON Y CAJAL - Aprox. Avda de la Ciudad Jardin", "latitude": "37.37505743166244", "fulladdress": "AVENIDA RAMON Y CAJAL - Aprox. Avda de la Ciudad Jardin  ", "open": "1", "number": "168", "longitude": "-5.967492114476132"}, {"bonus": "0", "name": "105_CALLE FRANCISCO MURILLO", "address": "CALLE FRANCISCO MURILLO - Aprox. C/ Manuel Siurot", "latitude": "37.35891036235994", "fulladdress": "CALLE FRANCISCO MURILLO - Aprox. C/ Manuel Siurot  ", "open": "1", "number": "105", "longitude": "-5.980620151182153"}, {"bonus": "0", "name": "117_AVDA ESPERANZA DE TRIANA", "address": "AVDA ESPERANZA DE TRIANA - Aprox. Avda Republica Argentina", "latitude": "37.37780642972879", "fulladdress": "AVDA ESPERANZA DE TRIANA - Aprox. Avda Republica Argentina  ", "open": "1", "number": "117", "longitude": "-6.002613239293098"}, {"bonus": "0", "name": "071_AVENIDA KANSAS CITY", "address": "AVENIDA KANSAS CITY - Aprox. Hotel Occidental", "latitude": "37.39003048884624", "fulladdress": "AVENIDA KANSAS CITY - Aprox. Hotel Occidental  ", "open": "1", "number": "71", "longitude": "-5.974491147670695"}, {"bonus": "0", "name": "002_GRAN PLAZA", "address": "GRAN PLAZA - Aprox. Calle Marquez de Pickman", "latitude": "37.38157804532793", "fulladdress": "GRAN PLAZA - Aprox. Calle Marquez de Pickman  ", "open": "1", "number": "2", "longitude": "-5.96522396639778"}, {"bonus": "0", "name": "167_GLORIETA BIZCO AMATE", "address": "GLORIETA BIZCO AMATE - Aprox. Avda Ramon y Cajal", "latitude": "37.37334966832237", "fulladdress": "GLORIETA BIZCO AMATE - Aprox. Avda Ramon y Cajal  ", "open": "1", "number": "167", "longitude": "-5.964933613203329"}, {"bonus": "0", "name": "126_AVENIDA REINA MERCEDES", "address": "AVENIDA REINA MERCEDES - Aprox. Facultad de Informatica", "latitude": "37.35816485883939", "fulladdress": "AVENIDA REINA MERCEDES - Aprox. Facultad de Informatica  ", "open": "1", "number": "126", "longitude": "-5.986482708713183"}, {"bonus": "0", "name": "169_AVENIDA RAMON Y CAJAL", "address": "AVENIDA RAMON Y CAJAL - Aprox. C/ Villegas Marmolejo", "latitude": "37.37650143552164", "fulladdress": "AVENIDA RAMON Y CAJAL - Aprox. C/ Villegas Marmolejo  ", "open": "1", "number": "169", "longitude": "-5.972667133462907"}, {"bonus": "0", "name": "170_PLAZA ANTONIO APARICIO HERRERO", "address": "PLAZA ANTONIO APARICIO HERRERO - Aprox. C/ San Juan de Dios", "latitude": "37.37896644673701", "fulladdress": "PLAZA ANTONIO APARICIO HERRERO - Aprox. C/ San Juan de Dios  ", "open": "1", "number": "170", "longitude": "-5.968923121755333"}, {"bonus": "0", "name": "028_CALLE RAFAEL SALGADO", "address": "CALLE RAFAEL SALGADO - Aprox. C/ Castillo Alcala de Guadaira", "latitude": "37.36026136921659", "fulladdress": "CALLE RAFAEL SALGADO - Aprox. C/ Castillo Alcala de Guadaira  ", "open": "1", "number": "28", "longitude": "-5.976659138066708"}, {"bonus": "0", "name": "033_CALLE LEON XIII", "address": "CALLE LEON XIII - Aprox. C/ Antonio Pantion", "latitude": "37.40146053108921", "fulladdress": "CALLE LEON XIII - Aprox. C/ Antonio Pantion  ", "open": "1", "number": "33", "longitude": "-5.983690186516563"}, {"bonus": "0", "name": "089_CALLE ADRIANO", "address": "CALLE ADRIANO - Aprox. C/ Antonia Diaz", "latitude": "37.38648146613877", "fulladdress": "CALLE ADRIANO - Aprox. C/ Antonia Diaz  ", "open": "1", "number": "89", "longitude": "-5.997790227366178"}, {"bonus": "0", "name": "171_CALLE ALFONSO LASO DE LA VEGA", "address": "CALLE ALFONSO LASO DE LA VEGA - Aprox. Parroco Antonio Gonzalez", "latitude": "37.36614639337372", "fulladdress": "CALLE ALFONSO LASO DE LA VEGA - Aprox. Parroco Antonio Gonzalez  ", "open": "1", "number": "171", "longitude": "-5.974870135199807"}, {"bonus": "0", "name": "172_RONDA TAMARGUILLO", "address": "RONDA TAMARGUILLO - Aprox. Alfonso Laso de la Vega", "latitude": "37.36717239881862", "fulladdress": "RONDA TAMARGUILLO - Aprox. Alfonso Laso de la Vega  ", "open": "1", "number": "172", "longitude": "-5.971211122957581"}, {"bonus": "0", "name": "173_RONDA TAMARGUILLO", "address": "RONDA TAMARGUILLO - Aprox. Avda de la Paz", "latitude": "37.37004841145897", "fulladdress": "RONDA TAMARGUILLO - Aprox. Avda de la Paz  ", "open": "1", "number": "173", "longitude": "-5.968064113583803"}, {"bonus": "0", "name": "030_AVENIDA EDUARDO DATO", "address": "AVENIDA EDUARDO DATO - Detras Estadio Sanchez Pizjuan", "latitude": "37.38262846064239", "fulladdress": "AVENIDA EDUARDO DATO - Detras Estadio Sanchez Pizjuan  ", "open": "1", "number": "30", "longitude": "-5.970853130640082"}, {"bonus": "0", "name": "111_PZA FARMACEUTICO MURILLO HERRERA", "address": "PZA FARMACEUTICO MURILLO HERRERA - Aprox. C/ Pajes de Corro", "latitude": "37.3813174443225", "fulladdress": "PZA FARMACEUTICO MURILLO HERRERA - Aprox. C/ Pajes de Corro  ", "open": "1", "number": "111", "longitude": "-6.001053235842167"}, {"bonus": "0", "name": "115_CALLE LOPEZ DE GOMARA", "address": "CALLE LOPEZ DE GOMARA - En frente Instituto Adolfo Becker", "latitude": "37.37789242837545", "fulladdress": "CALLE LOPEZ DE GOMARA - En frente Instituto Adolfo Becker  ", "open": "1", "number": "115", "longitude": "-6.007237255573729"}, {"bonus": "0", "name": "163_CALLE SINAI", "address": "CALLE SINAI - Aprox. C/ Baltazar Gracian", "latitude": "37.38995448989595", "fulladdress": "CALLE SINAI - Aprox. C/ Baltazar Gracian  ", "open": "1", "number": "163", "longitude": "-5.970802134688754"}, {"bonus": "0", "name": "034_PLAZA PUMAREJO", "address": "PLAZA PUMAREJO - Aprox. Calle San Luis", "latitude": "37.40102752757453", "fulladdress": "PLAZA PUMAREJO - Aprox. Calle San Luis  ", "open": "1", "number": "34", "longitude": "-5.988578203413862"}, {"bonus": "0", "name": "047_CALLE HINIESTA", "address": "CALLE HINIESTA - Aprox. Convento Santa Isabel", "latitude": "37.39713251259333", "fulladdress": "CALLE HINIESTA - Aprox. Convento Santa Isabel  ", "open": "1", "number": "47", "longitude": "-5.987037195768433"}, {"bonus": "0", "name": "050_CALLE DE HERNAN CORTES", "address": "CALLE DE HERNAN CORTES - Aprox. C/ Eslava", "latitude": "37.39755451074549", "fulladdress": "CALLE DE HERNAN CORTES - Aprox. C/ Eslava  ", "open": "1", "number": "50", "longitude": "-5.996695229895344"}, {"bonus": "0", "name": "174_RONDA TAMARGUILLO", "address": "RONDA TAMARGUILLO - Aprox. Marques de Pickman", "latitude": "37.38061245637617", "fulladdress": "RONDA TAMARGUILLO - Aprox. Marques de Pickman  ", "open": "1", "number": "174", "longitude": "-5.960574093426685"}, {"bonus": "0", "name": "151_CALLE URQUIZA", "address": "CALLE URQUIZA - Aprox. C/ Venecia", "latitude": "37.39454446694585", "fulladdress": "CALLE URQUIZA - Aprox. C/ Venecia  ", "open": "1", "number": "151", "longitude": "-5.979897194354694"}, {"bonus": "0", "name": "054_PLAZA SAN JUAN DE LA PALMA", "address": "PLAZA SAN JUAN DE LA PALMA - Aprox. iglesia", "latitude": "37.39523950356959", "fulladdress": "PLAZA SAN JUAN DE LA PALMA - Aprox. iglesia  ", "open": "1", "number": "54", "longitude": "-5.991050208758028"}, {"bonus": "0", "name": "127_CALLE VIRGEN DE LA VICTORIA", "address": "CALLE VIRGEN DE LA VICTORIA - Aprox. C/ Asuncion", "latitude": "37.37764043077863", "fulladdress": "CALLE VIRGEN DE LA VICTORIA - Aprox. C/ Asuncion  ", "open": "1", "number": "127", "longitude": "-5.997947222820481"}, {"bonus": "0", "name": "039_PLAZA SAN ANTONIO DE PADUA", "address": "PLAZA SAN ANTONIO DE PADUA - Aprox. C/ Marques de la Mina", "latitude": "37.39784002230436", "fulladdress": "PLAZA SAN ANTONIO DE PADUA - Aprox. C/ Marques de la Mina  ", "open": "1", "number": "39", "longitude": "-5.998504686877961"}, {"bonus": "0", "name": "063_CALLE SAN PABLO", "address": "CALLE SAN PABLO - Aprox. C/ Bailen", "latitude": "37.39045648189452", "fulladdress": "CALLE SAN PABLO - Aprox. C/ Bailen  ", "open": "1", "number": "63", "longitude": "-5.998103230753266"}, {"bonus": "0", "name": "175_RONDA TAMARGUILLO", "address": "RONDA TAMARGUILLO - Plaza Ruperto Chapi", "latitude": "37.37775744487495", "fulladdress": "RONDA TAMARGUILLO - Plaza Ruperto Chapi  ", "open": "1", "number": "175", "longitude": "-5.960870092813821"}, {"bonus": "0", "name": "026_AVENIDA DE MIRAFLORES", "address": "AVENIDA DE MIRAFLORES - Aprox. C/ Manuel Rodenas", "latitude": "37.40249453741322", "fulladdress": "AVENIDA DE MIRAFLORES - Aprox. C/ Manuel Rodenas  ", "open": "1", "number": "26", "longitude": "-5.977678166024575"}, {"bonus": "0", "name": "041_PLAZA CALDERON DE LA BARCA", "address": "PLAZA CALDERON DE LA BARCA - Aprox. C/ Amargura", "latitude": "37.39958252091155", "fulladdress": "PLAZA CALDERON DE LA BARCA - Aprox. C/ Amargura  ", "open": "1", "number": "41", "longitude": "-5.991029211181825"}, {"bonus": "0", "name": "060_PLAZA DE LA CONCORDIA", "address": "PLAZA DE LA CONCORDIA - Aprox. C/ Teniente Borges", "latitude": "37.39395749631202", "fulladdress": "PLAZA DE LA CONCORDIA - Aprox. C/ Teniente Borges  ", "open": "1", "number": "60", "longitude": "-5.996899228542791"}, {"bonus": "0", "name": "176_AVENIDA DE LA CIUDAD JARDIN", "address": "AVENIDA DE LA CIUDAD JARDIN - Aprox. C/ Profesor Brana", "latitude": "37.3775594419921", "fulladdress": "AVENIDA DE LA CIUDAD JARDIN - Aprox. C/ Profesor Brana  ", "open": "1", "number": "176", "longitude": "-5.966557112643772"}, {"bonus": "0", "name": "178_CALLE JOSE SARAMAGO", "address": "CALLE JOSE SARAMAGO - Aprox. Avda del Alcalde Juan Fernandez", "latitude": "37.37330407626281", "fulladdress": "CALLE JOSE SARAMAGO - Aprox. Avda del Alcalde Juan Fernandez  ", "open": "1", "number": "178", "longitude": "-5.97391890132113"}, {"bonus": "0", "name": "059_AVENIDA DE LA PALMERA", "address": "AVENIDA DE LA PALMERA - Aprox. Avenida del Libano", "latitude": "37.37123840842449", "fulladdress": "AVENIDA DE LA PALMERA - Aprox. Avenida del Libano  ", "open": "1", "number": "59", "longitude": "-5.989210188461531"}, {"bonus": "0", "name": "147_CARRETERA DE CARMONA", "address": "CARRETERA DE CARMONA - Aprox. C/ Maestro Solano", "latitude": "37.40079553153059", "fulladdress": "CARRETERA DE CARMONA - Aprox. C/ Maestro Solano  ", "open": "1", "number": "147", "longitude": "-5.975228156455095"}, {"bonus": "0", "name": "013_CALLE FERIA", "address": "CALLE FERIA - Aprox. C/ Resolana", "latitude": "37.40313353475898", "fulladdress": "CALLE FERIA - Aprox. C/ Resolana  ", "open": "1", "number": "13", "longitude": "-5.991918216341031"}, {"bonus": "0", "name": "003_PUERTA DE LA BARQUETA", "address": "PUERTA DE LA BARQUETA - Aprox. Puente de la Barqueta", "latitude": "37.40564154237001", "fulladdress": "PUERTA DE LA BARQUETA - Aprox. Puente de la Barqueta  ", "open": "1", "number": "3", "longitude": "-5.998488240831263"}, {"bonus": "0", "name": "045_CARRETERA DE CARMONA", "address": "CARRETERA DE CARMONA - Aprox. C/ de Francisco de Arino", "latitude": "37.39992052707672", "fulladdress": "CARRETERA DE CARMONA - Aprox. C/ de Francisco de Arino  ", "open": "1", "number": "45", "longitude": "-5.97781616502751"}, {"bonus": "0", "name": "088_CALLE AMERICO VESPUCIO", "address": "CALLE AMERICO VESPUCIO - Aprox. C/ Hermanos d'Eluyar", "latitude": "37.40934127713802", "fulladdress": "CALLE AMERICO VESPUCIO - Aprox. C/ Hermanos d'Eluyar  ", "open": "1", "number": "88", "longitude": "-6.006338859390215"}, {"bonus": "0", "name": "067_CALLE LEONARDO DA VINCI", "address": "CALLE LEONARDO DA VINCI - Aprox. C/ Albert Einstein", "latitude": "37.40416253325053", "fulladdress": "CALLE LEONARDO DA VINCI - Aprox. C/ Albert Einstein  ", "open": "1", "number": "67", "longitude": "-6.00730227091074"}, {"bonus": "0", "name": "095_CALLE AMERICO VESPUCIO", "address": "CALLE AMERICO VESPUCIO - Aprox. C/ Juan Bautista Munoz", "latitude": "37.41217356557977", "fulladdress": "CALLE AMERICO VESPUCIO - Aprox. C/ Juan Bautista Munoz  ", "open": "1", "number": "95", "longitude": "-6.006338272120392"}, {"bonus": "0", "name": "184_AVENIDA ALCALDE MANUEL DEL VALLE", "address": "AVENIDA ALCALDE MANUEL DEL VALLE - Aprox. C/ San Juan de la Salle", "latitude": "37.40852456409507", "fulladdress": "AVENIDA ALCALDE MANUEL DEL VALLE - Aprox. C/ San Juan de la Salle  ", "open": "1", "number": "184", "longitude": "-5.97049314429485"}, {"bonus": "0", "name": "099_CALLE AMERICO VESPUCIO", "address": "CALLE AMERICO VESPUCIO - Aprox. Gerencia de Urbanismo de Sevilla", "latitude": "37.39739450501055", "fulladdress": "CALLE AMERICO VESPUCIO - Aprox. Gerencia de Urbanismo de Sevilla  ", "open": "1", "number": "99", "longitude": "-6.010641278744458"}, {"bonus": "0", "name": "179_RONDA URBANA NORTE", "address": "RONDA URBANA NORTE - Aprox. C/ de Rimas", "latitude": "37.41316317739506", "fulladdress": "RONDA URBANA NORTE - Aprox. C/ de Rimas  ", "open": "1", "number": "179", "longitude": "-5.985131221637643"}, {"bonus": "0", "name": "091_CALLE PROCURADOR", "address": "CALLE PROCURADOR - Clara de Jesus Monteto", "latitude": "37.38690746421921", "fulladdress": "CALLE PROCURADOR - Clara de Jesus Monteto  ", "open": "1", "number": "91", "longitude": "-6.007674262301094"}, {"bonus": "0", "name": "180_CALLE DOCTOR JAIME MARCOS", "address": "CALLE DOCTOR JAIME MARCOS - Aprox. Avda. Doc. Fedriani", "latitude": "37.40964956350476", "fulladdress": "CALLE DOCTOR JAIME MARCOS - Aprox. Avda. Doc. Fedriani  ", "open": "1", "number": "180", "longitude": "-5.98440119371439"}, {"bonus": "0", "name": "181_RONDA URBANA NORTE", "address": "RONDA URBANA NORTE - Aprox. C/ Doctor Fedriani", "latitude": "37.41335157894307", "fulladdress": "RONDA URBANA NORTE - Aprox. C/ Doctor Fedriani  ", "open": "1", "number": "181", "longitude": "-5.982568189409848"}, {"bonus": "0", "name": "185_AVENIDA ALCALDE MANUEL DEL VALLE", "address": "AVENIDA ALCALDE MANUEL DEL VALLE - Aprox. C/ Alejandro Sawa", "latitude": "37.40509431569403", "fulladdress": "AVENIDA ALCALDE MANUEL DEL VALLE - Aprox. C/ Alejandro Sawa  ", "open": "1", "number": "185", "longitude": "-5.968862135165761"}, {"bonus": "0", "name": "186_CALLE ORFEBRE DOMINGUEZ VAZQUEZ", "address": "CALLE ORFEBRE DOMINGUEZ VAZQUEZ - Aprox. C/ Pino Montano", "latitude": "37.40860456343952", "fulladdress": "CALLE ORFEBRE DOMINGUEZ VAZQUEZ - Aprox. C/ Pino Montano  ", "open": "1", "number": "186", "longitude": "-5.973161153696026"}, {"bonus": "0", "name": "197_CALLE AGRICULTORES", "address": "CALLE AGRICULTORES - Aprox. C/ estrella Betelgeuse", "latitude": "37.42343862506507", "fulladdress": "CALLE AGRICULTORES - Aprox. C/ estrella Betelgeuse  ", "open": "1", "number": "197", "longitude": "-5.96640413851815"}, {"bonus": "0", "name": "196_CALLE ESTRELLA CANOPUS", "address": "CALLE ESTRELLA CANOPUS - Aprox. C/ estrella Betelgeuse", "latitude": "37.42470162875488", "fulladdress": "CALLE ESTRELLA CANOPUS - Aprox. C/ estrella Betelgeuse  ", "open": "1", "number": "196", "longitude": "-5.970101152202059"}, {"bonus": "0", "name": "194_CALLE PARQUE DE DONANA", "address": "CALLE PARQUE DE DONANA - Aprox. Calle Corral de los Olmos", "latitude": "37.41873260382447", "fulladdress": "CALLE PARQUE DE DONANA - Aprox. Calle Corral de los Olmos  ", "open": "1", "number": "194", "longitude": "-5.97319415962488"}, {"bonus": "0", "name": "182_CALLE VICTORIA KENT", "address": "CALLE VICTORIA KENT - Aprox. Avda Alcalde Manuel del Valle", "latitude": "37.41459658707776", "fulladdress": "CALLE VICTORIA KENT - Aprox. Avda Alcalde Manuel del Valle  ", "open": "1", "number": "182", "longitude": "-5.973881159661203"}, {"bonus": "0", "name": "198_CALLE MAR DE ALBORAN", "address": "CALLE MAR DE ALBORAN - Aprox. C/ Camino de los Toros", "latitude": "37.42044661256891", "fulladdress": "CALLE MAR DE ALBORAN - Aprox. C/ Camino de los Toros  ", "open": "1", "number": "198", "longitude": "-5.967956142243533"}, {"bonus": "0", "name": "191_GLORIETA CARLOS CANO", "address": "GLORIETA CARLOS CANO - Aprox. C/ Blas Infante", "latitude": "37.37411641267212", "fulladdress": "GLORIETA CARLOS CANO - Aprox. C/ Blas Infante  ", "open": "1", "number": "191", "longitude": "-6.008853259077473"}, {"bonus": "0", "name": "066_CALLE ARROYO", "address": "CALLE ARROYO - Aprox. Avda. Jose Laguillo", "latitude": "37.39362550048881", "fulladdress": "CALLE ARROYO - Aprox. Avda. Jose Laguillo  ", "open": "1", "number": "66", "longitude": "-5.981869175620968"}, {"bonus": "0", "name": "201_CALLE PINO MONTANO", "address": "CALLE PINO MONTANO - Aprox. C/ Estafeta", "latitude": "37.41568359361039", "fulladdress": "CALLE PINO MONTANO - Aprox. C/ Estafeta  ", "open": "1", "number": "201", "longitude": "-5.967858139167567"}, {"bonus": "0", "name": "061_PLAZA DEL MUSEO", "address": "PLAZA DEL MUSEO - Aprox. C/ Alfonso XII", "latitude": "37.39281349085037", "fulladdress": "PLAZA DEL MUSEO - Aprox. C/ Alfonso XII  ", "open": "1", "number": "61", "longitude": "-5.999344236464369"}, {"bonus": "0", "name": "086_CAMINO DE LOS DESCUBRIMIENTOS", "address": "CAMINO DE LOS DESCUBRIMIENTOS - Aprox. Pasarela de la Cartuja", "latitude": "37.39707250530929", "fulladdress": "CAMINO DE LOS DESCUBRIMIENTOS - Aprox. Pasarela de la Cartuja  ", "open": "1", "number": "86", "longitude": "-6.006304263337968"}, {"bonus": "0", "name": "096_CALLE BETIS", "address": "CALLE BETIS - Aprox. C/ Juan de Lugo", "latitude": "37.3835407311529", "fulladdress": "CALLE BETIS - Aprox. C/ Juan de Lugo  ", "open": "1", "number": "96", "longitude": "-5.999910722822249"}, {"bonus": "0", "name": "183_ALCALDE MANUEL DEL VALLE", "address": "ALCALDE MANUEL DEL VALLE - Aprox. C/ Pino Montano", "latitude": "37.41101757377389", "fulladdress": "ALCALDE MANUEL DEL VALLE - Aprox. C/ Pino Montano  ", "open": "1", "number": "183", "longitude": "-5.97121914827267"}, {"bonus": "0", "name": "203_CALLE TESALONICA", "address": "CALLE TESALONICA - Calle Mazzantini", "latitude": "37.39609351880257", "fulladdress": "CALLE TESALONICA - Calle Mazzantini  ", "open": "1", "number": "203", "longitude": "-5.958764096016824"}, {"bonus": "0", "name": "200_CAMINO DE LOS TOROS", "address": "CAMINO DE LOS TOROS - Aprox. C/ Mediterraneo", "latitude": "37.41891360818369", "fulladdress": "CAMINO DE LOS TOROS - Aprox. C/ Mediterraneo  ", "open": "1", "number": "200", "longitude": "-5.963217124751443"}, {"bonus": "0", "name": "187_CALLE DOCTOR LAFFON", "address": "CALLE DOCTOR LAFFON - Aprox. C/ Efeso", "latitude": "37.39540051410288", "fulladdress": "CALLE DOCTOR LAFFON - Aprox. C/ Efeso  ", "open": "1", "number": "187", "longitude": "-5.964043114126317"}, {"bonus": "0", "name": "199_MAR DE ALBORAN", "address": "MAR DE ALBORAN - Aprox. Corral de los Olmos", "latitude": "37.4178556017479", "fulladdress": "MAR DE ALBORAN - Aprox. Corral de los Olmos  ", "open": "1", "number": "199", "longitude": "-5.969296145455354"}, {"bonus": "0", "name": "202_AVENIDA MUJER TRABAJADORA", "address": "AVENIDA MUJER TRABAJADORA - Aprox. Avda Miraflores", "latitude": "37.41146657719195", "fulladdress": "AVENIDA MUJER TRABAJADORA - Aprox. Avda Miraflores  ", "open": "1", "number": "202", "longitude": "-5.966763132907271"}, {"bonus": "0", "name": "195_CALLE CORRAL DEL AGUA", "address": "CALLE CORRAL DEL AGUA - Aprox. Camino de los toros", "latitude": "37.42171561628419", "fulladdress": "CALLE CORRAL DEL AGUA - Aprox. Camino de los toros  ", "open": "1", "number": "195", "longitude": "-5.971648155914519"}, {"bonus": "0", "name": "177_AVENIDA ALCALDE JUAN FERNANDEZ", "address": "AVENIDA ALCALDE JUAN FERNANDEZ - Aprox. C/ Profesor Buenaventura Pinillos", "latitude": "37.37306842313399", "fulladdress": "AVENIDA ALCALDE JUAN FERNANDEZ - Aprox. C/ Profesor Buenaventura Pinillos  ", "open": "1", "number": "177", "longitude": "-5.9690941189446"}, {"bonus": "0", "name": "207_CALLE IFNI", "address": "CALLE IFNI - Aprox. Avda de Holanda", "latitude": "37.35501634616241", "fulladdress": "CALLE IFNI - Aprox. Avda de Holanda  ", "open": "1", "number": "207", "longitude": "-5.982370155065175"}, {"bonus": "0", "name": "205_AVENIDA KANSAS CITY", "address": "AVENIDA KANSAS CITY - Aprox. Pza el Tato", "latitude": "37.39981714629299", "fulladdress": "AVENIDA KANSAS CITY - Aprox. Pza el Tato  ", "open": "1", "number": "205", "longitude": "-5.961922341869038"}, {"bonus": "0", "name": "208_AVENIDA DE GRECIA", "address": "AAVENIDA DE GRECIA - Aprox. Avda de Italia", "latitude": "37.35065632807553", "fulladdress": "AAVENIDA DE GRECIA - Aprox. Avda de Italia  ", "open": "1", "number": "208", "longitude": "-5.984190158922543"}, {"bonus": "0", "name": "193_AVENIDA DE CORIA", "address": "AVENIDA DE CORIA - Aprox. C/ Coruna", "latitude": "37.38111143948424", "fulladdress": "AVENIDA DE CORIA - Aprox. C/ Coruna  ", "open": "1", "number": "193", "longitude": "-6.012005274166835"}, {"bonus": "0", "name": "213_AVENIDA DE ANDALUCIA", "address": "AVENIDA DE ANDALUCIA - Aprox. Cochera de TUSSAM", "latitude": "37.38714348690405", "fulladdress": "AVENIDA DE ANDALUCIA - Aprox. Cochera de TUSSAM  ", "open": "1", "number": "213", "longitude": "-5.948410054553437"}, {"bonus": "0", "name": "090_CALLE ROMA", "address": "CALLE ROMA - Aprox. C/ Palos de la Frontera", "latitude": "37.38119844660807", "fulladdress": "CALLE ROMA - Aprox. C/ Palos de la Frontera  ", "open": "1", "number": "90", "longitude": "-5.993528209364882"}, {"bonus": "0", "name": "192_AVENIDA DE ALVAR NUNEZ", "address": "AVENIDA DE ALVAR NUNEZ - Aprox. C/ Collante", "latitude": "37.37833442855656", "fulladdress": "AVENIDA DE ALVAR NUNEZ - Aprox. C/ Collante  ", "open": "1", "number": "192", "longitude": "-6.011556270990402"}, {"bonus": "0", "name": "120_GLORIETA SAN DIEGO", "address": "GLORIETA SAN DIEGO - Aprox. C/ Palos de la Frontera", "latitude": "37.37896144135567", "fulladdress": "GLORIETA SAN DIEGO - Aprox. C/ Palos de la Frontera  ", "open": "1", "number": "120", "longitude": "-5.989966195594725"}, {"bonus": "0", "name": "188_AVENIDA HYTASA", "address": "AVENIDA HYTASA - Aprox. C/ Romeral", "latitude": "37.37256042361221", "fulladdress": "AVENIDA HYTASA - Aprox. C/ Romeral  ", "open": "1", "number": "188", "longitude": "-5.963362098447178"}, {"bonus": "0", "name": "189_AVENIDA HYTASA", "address": "AVENIDA HYTASA - Aprox. Nuestra Senora de los Dolores", "latitude": "37.37005341642907", "fulladdress": "AVENIDA HYTASA - Aprox. Nuestra Senora de los Dolores  ", "open": "1", "number": "189", "longitude": "-5.959496083704879"}, {"bonus": "0", "name": "123_ESTADIO OLIMPICO", "address": "ESTADIO OLIMPICO", "latitude": "37.41585058006381", "fulladdress": "ESTADIO OLIMPICO  ", "open": "1", "number": "123", "longitude": "-6.005474271334001"}, {"bonus": "0", "name": "206_AVENIDA KANSAS CITY", "address": "AVENIDA KANSAS CITY - Aprox. C/ Macedonia", "latitude": "37.40296354842764", "fulladdress": "AVENIDA KANSAS CITY - Aprox. C/ Macedonia  ", "open": "1", "number": "206", "longitude": "-5.958211097806437"}, {"bonus": "0", "name": "190_AVENIDA HYTASA", "address": "AVENIDA HYTASA - Aprox. C/ Herramienta", "latitude": "37.36873540997663", "fulladdress": "AVENIDA HYTASA - Aprox. C/ Herramienta  ", "open": "1", "number": "190", "longitude": "-5.957293074803896"}, {"bonus": "0", "name": "204_CALLE DOCTOR LAFFON", "address": "CALLE DOCTOR LAFFON - Aprox. C/ Tesalonica", "latitude": "37.39768969188425", "fulladdress": "CALLE DOCTOR LAFFON - Aprox. C/ Tesalonica  ", "open": "1", "number": "204", "longitude": "-5.96160136486722"}, {"bonus": "0", "name": "211_AVENIDA DE ALEMANIA", "address": "AVENIDA DE ALEMANIA - Aprox. Glorieta de Letonia", "latitude": "37.34620231070945", "fulladdress": "AVENIDA DE ALEMANIA - Aprox. Glorieta de Letonia  ", "open": "1", "number": "211", "longitude": "-5.976200128537064"}, {"bonus": "0", "name": "212_AVENIDA REINIDO UNIDO", "address": "AVENIDA REINIDO UNIDO - Aprox. Avda de Italia", "latitude": "37.35158233769135", "fulladdress": "AVENIDA REINIDO UNIDO - Aprox. Avda de Italia  ", "open": "1", "number": "212", "longitude": "-5.977784137525409"}, {"bonus": "0", "name": "210_PASEO DE EUROPA", "address": "PASEO DE EUROPA - Aprox. Ava de Francia", "latitude": "37.34806132033223", "fulladdress": "PASEO DE EUROPA - Aprox. Ava de Francia  ", "open": "1", "number": "210", "longitude": "-5.980058142587488"}, {"bonus": "0", "name": "214_AVENIDA DE ANDALUCIA", "address": "AVENIDA DE ANDALUCIA - Aprox. Entrada TUSSAM", "latitude": "37.38714348690405", "fulladdress": "AVENIDA DE ANDALUCIA - Aprox. Entrada TUSSAM  ", "open": "1", "number": "214", "longitude": "-5.948410054553437"}, {"bonus": "0", "name": "215_CALLE ZORZAL", "address": "CALLE ZORZAL - Aprox. Avenida de Andalucia", "latitude": "37.38664148025849", "fulladdress": "CALLE ZORZAL - Aprox. Avenida de Andalucia  ", "open": "1", "number": "215", "longitude": "-5.953981074150936"}, {"bonus": "0", "name": "209_AVENIDA ALEMANIA", "address": "AVENIDA ALEMANIA - Aprox. Glorieta Chekia", "latitude": "37.34531731164308", "fulladdress": "AVENIDA ALEMANIA - Aprox. Glorieta Chekia  ", "open": "1", "number": "209", "longitude": "-5.982656150368391"}, {"bonus": "0", "name": "221_AVENIDA ALCALDE LUIS URUNUELA", "address": "AVENIDA ALCALDE LUIS URUNUELA - Aprox. Hotel Sevilla Congresos", "latitude": "37.40560856297865", "fulladdress": "AVENIDA ALCALDE LUIS URUNUELA - Aprox. Hotel Sevilla Congresos  ", "open": "1", "number": "221", "longitude": "-5.930524002164018"}, {"bonus": "0", "name": "219_CALLE DE LA A.D.A.", "address": "CALLE DE LA A.D.A. - Aprox. C/ de Tesalonica", "latitude": "37.3905365010144", "fulladdress": "CALLE DE LA A.D.A. - Aprox. C/ de Tesalonica  ", "open": "1", "number": "219", "longitude": "-5.959072093702479"}, {"bonus": "0", "name": "217_CALLE DE LA A.D.A.", "address": "CALLE DE LA A.D.A. - Aprox. C/ Jerusalen", "latitude": "37.39387450542021", "fulladdress": "CALLE DE LA A.D.A. - Aprox. C/ Jerusalen  ", "open": "1", "number": "217", "longitude": "-5.962371106824864"}, {"bonus": "0", "name": "216_CALLE ANTIOQUIA", "address": "CALLE ANTIOQUIA - Aprox. Avda de Pedro Romero", "latitude": "37.39993753083735", "fulladdress": "CALLE ANTIOQUIA - Aprox. Avda de Pedro Romero  ", "open": "1", "number": "216", "longitude": "-5.95628508908707"}, {"bonus": "0", "name": "220_AVENIDA ALCALDE LUIS URUNUELA", "address": "AVENIDA ALCALDE LUIS URUNUELA - Aprox. Centro Comercial Zona Este", "latitude": "37.40518956185269", "fulladdress": "AVENIDA ALCALDE LUIS URUNUELA - Aprox. Centro Comercial Zona Este  ", "open": "1", "number": "220", "longitude": "-5.935780020616404"}, {"bonus": "0", "name": "225_CALLE FLOR DE RETAMA", "address": "CALLE FLOR DE RETAMA - Aprox. Centro Deportivo Entreflores", "latitude": "37.3973905402371", "fulladdress": "CALLE FLOR DE RETAMA - Aprox. Centro Deportivo Entreflores  ", "open": "1", "number": "225", "longitude": "-5.918776956284244"}, {"bonus": "0", "name": "226_AVENIDA DOCTOR EMILIO LEMOS", "address": "AVENIDA DOCTOR EMILIO LEMOS - Aprox. C/ de Birmania", "latitude": "37.40286287174528", "fulladdress": "AVENIDA DOCTOR EMILIO LEMOS - Aprox. C/ de Birmania  ", "open": "1", "number": "226", "longitude": "-5.921753676327738"}, {"bonus": "0", "name": "222_AVENIDA ALCALDE LUIS URUNUELA", "address": "AVENIDA ALCALDE LUIS URUNUELA - Aprox. Palacio de los Congresos", "latitude": "37.40508356497133", "fulladdress": "AVENIDA ALCALDE LUIS URUNUELA - Aprox. Palacio de los Congresos  ", "open": "1", "number": "222", "longitude": "-5.933616012901859"}, {"bonus": "0", "name": "224_AVENIDA DE LAS CIENCIAS", "address": "AVENIDA DE LAS CIENCIAS - Aprox. C/ de Ulises", "latitude": "37.39701353946725", "fulladdress": "AVENIDA DE LAS CIENCIAS - Aprox. C/ de Ulises  ", "open": "1", "number": "224", "longitude": "-5.923756974136509"}, {"bonus": "0", "name": "227_AVENIDA ALCALDE LUIS URUNUELA", "address": "AVENIDA ALCALDE LUIS URUNUELA - Aprox. C/ Carlinga", "latitude": "37.39075351415996", "fulladdress": "AVENIDA ALCALDE LUIS URUNUELA - Aprox. C/ Carlinga  ", "open": "1", "number": "227", "longitude": "-5.91963595581283"}, {"bonus": "0", "name": "233_AVENIDA ALCALDE LUIS URUNUELA", "address": "AVENIDA ALCALDE LUIS URUNUELA - Aprox. Estacion de RENFE", "latitude": "37.40411255610393", "fulladdress": "AVENIDA ALCALDE LUIS URUNUELA - Aprox. Estacion de RENFE  ", "open": "1", "number": "233", "longitude": "-5.937092024971125"}, {"bonus": "0", "name": "230_AVENIDA DE LAS CIENCIAS", "address": "AVENIDA DE LAS CIENCIAS - Aprox. Avda de la Republica China", "latitude": "37.40392755944602", "fulladdress": "AVENIDA DE LAS CIENCIAS - Aprox. Avda de la Republica China  ", "open": "1", "number": "230", "longitude": "-5.928139993197263"}, {"bonus": "0", "name": "229_AVENIDA AERONAUTICA", "address": "AVENIDA AERONAUTICA - Aprox. Avda del Deporte", "latitude": "37.38735449491008", "fulladdress": "AVENIDA AERONAUTICA - Aprox. Avda del Deporte  ", "open": "1", "number": "229", "longitude": "-5.919918954593122"}, {"bonus": "0", "name": "228_AVENIDA DE LAS CIENCIAS", "address": "AVENIDA DE LAS CIENCIAS - Aprox. C/ Flor de Salvia", "latitude": "37.39444952378535", "fulladdress": "AVENIDA DE LAS CIENCIAS - Aprox. C/ Flor de Salvia  ", "open": "1", "number": "228", "longitude": "-5.921230963560515"}, {"bonus": "0", "name": "232_AVENIDA ALCALDE LUIS URUNUELA", "address": "AVENIDA ALCALDE LUIS URUNUELA - Aprox. Pza de la Acogida", "latitude": "37.40393955876748", "fulladdress": "AVENIDA ALCALDE LUIS URUNUELA - Aprox. Pza de la Acogida  ", "open": "1", "number": "232", "longitude": "-5.939739033438785"}, {"bonus": "0", "name": "234_CALLE MEDICOS SIN FRONTERA", "address": "CALLE MEDICOS SIN FRONTERA - Aprox. Avda de las Ciencias", "latitude": "37.3999401269442", "fulladdress": "CALLE MEDICOS SIN FRONTERA - Aprox. Avda de las Ciencias  ", "open": "1", "number": "234", "longitude": "-5.925163964339344"}, {"bonus": "0", "name": "237_CIUDAD DE CHIVA", "address": "CIUDAD DE CHIVA - Aprox. C/ Ildefonso Maranon", "latitude": "37.40933458572771", "fulladdress": "CIUDAD DE CHIVA - Aprox. C/ Ildefonso Maranon  ", "open": "1", "number": "237", "longitude": "-5.923254979770833"}, {"bonus": "0", "name": "235_CIUDAD DE CHIVA", "address": "CIUDAD DE CHIVA - Aprox. C/ ciudad de Alfajar", "latitude": "37.411735810991", "fulladdress": "CIUDAD DE CHIVA - Aprox. C/ ciudad de Alfajar  ", "open": "1", "number": "235", "longitude": "-5.929859071297002"}, {"bonus": "0", "name": "231_AVENIDA ALCALDE LUIS URUNUELA", "address": "AVENIDA ALCALDE LUIS URUNUELA - Aprox. Paseo Miguel de Unamuno", "latitude": "37.40167354645664", "fulladdress": "AVENIDA ALCALDE LUIS URUNUELA - Aprox. Paseo Miguel de Unamuno  ", "open": "1", "number": "231", "longitude": "-5.942139041014662"}, {"bonus": "0", "name": "238_CIUDAD DE CHIVA", "address": "CIUDAD DE CHIVA - Aprox. Pza del Arbol Rey", "latitude": "37.40813257383076", "fulladdress": "CIUDAD DE CHIVA - Aprox. Pza del Arbol Rey  ", "open": "1", "number": "238", "longitude": "-5.919993048486191"}, {"bonus": "0", "name": "236_CIUDAD DE CHIVA", "address": "CIUDAD DE CHIVA - Aprox. C/ ciudad de Liria", "latitude": "37.4102171143178", "fulladdress": "CIUDAD DE CHIVA - Aprox. C/ ciudad de Liria  ", "open": "1", "number": "236", "longitude": "-5.926422374057527"}, {"bonus": "0", "name": "239_CALLE CIUDAD DE LIRIA", "address": "CALLE CIUDAD DE LIRIA - Aprox. Avda de Fernando", "latitude": "37.4086915827457", "fulladdress": "CALLE CIUDAD DE LIRIA - Aprox. Avda de Fernando  ", "open": "1", "number": "239", "longitude": "-5.927718994548674"}, {"bonus": "0", "name": "240_AVENIDA ALCALDE LUIS URUNUELA", "address": "AVENIDA ALCALDE LUIS URUNUELA - Aprox. Cueva de la Pileta", "latitude": "37.40257954448899", "fulladdress": "AVENIDA ALCALDE LUIS URUNUELA - Aprox. Cueva de la Pileta  ", "open": "1", "number": "240", "longitude": "-5.940435585086025"}, {"bonus": "0", "name": "243_GLORIETA DEL PRIMERO DE MAYO", "address": "GLORIETA DEL PRIMERO DE MAYO - Aprox. C/ Carlos Marx", "latitude": "37.38043948116999", "fulladdress": "GLORIETA DEL PRIMERO DE MAYO - Aprox. C/ Carlos Marx  ", "open": "1", "number": "243", "longitude": "-5.953481197462845"}, {"bonus": "0", "name": "245_CALLE LAS LEANDRAS", "address": "Aprox. Avda Los Gavilanes", "latitude": "37.37539881124939", "fulladdress": "Aprox. Avda Los Gavilanes  ", "open": "1", "number": "245", "longitude": "-5.952549466245021"}, {"bonus": "0", "name": "244_AVENIDA LOS GAVILANES", "address": "AVENIDA LOS GAVILANES - Aprox. Avda Juan XXIII", "latitude": "37.3780400290467", "fulladdress": "AVENIDA LOS GAVILANES - Aprox. Avda Juan XXIII  ", "open": "1", "number": "244", "longitude": "-5.95178368562984"}, {"bonus": "0", "name": "223_CALLE GEMA", "address": "CALLE GEMA - Aprox. Avda de las Ciencias", "latitude": "37.40073135956411", "fulladdress": "CALLE GEMA - Aprox. Avda de las Ciencias  ", "open": "1", "number": "223", "longitude": "-5.92632420198497"}, {"bonus": "0", "name": "246_PUERTO DE LOS AZORES", "address": "PUERTO DE LOS AZORES - Aprox. C/ Paulo Orosio", "latitude": "37.37613906245566", "fulladdress": "PUERTO DE LOS AZORES - Aprox. C/ Paulo Orosio  ", "open": "1", "number": "246", "longitude": "-5.955017317014327"}, {"bonus": "0", "name": "037_ALAMEDA DE HERCULES", "address": "ALAMEDA DE HERCULES - Aprox. C/ Vulcano", "latitude": "37.39878577282474", "fulladdress": "ALAMEDA DE HERCULES - Aprox. C/ Vulcano  ", "open": "1", "number": "37", "longitude": "-5.99318901314001"}, {"bonus": "0", "name": "241_PLAZA NUEVA", "address": "PLAZA NUEVA - Aprox. C/ Mendez Nunez", "latitude": "37.38881544328257", "fulladdress": "PLAZA NUEVA - Aprox. C/ Mendez Nunez  ", "open": "1", "number": "241", "longitude": "-5.995863788052556"}, {"bonus": "0", "name": "242_PLAZA NUEVA", "address": "PLAZA NUEVA - Aprox. C/ Mendez Nunez", "latitude": "37.38881830392981", "fulladdress": "PLAZA NUEVA - Aprox. C/ Mendez Nunez  ", "open": "1", "number": "242", "longitude": "-5.995750976296489"}, {"bonus": "0", "name": "248_GLORIETA DE LOS FERROVIARIOS", "address": "GLORIETA DE LOS FERROVIARIOS - Aprox. C/ Navarra", "latitude": "37.42190302369394", "fulladdress": "GLORIETA DE LOS FERROVIARIOS - Aprox. C/ Navarra  ", "open": "1", "number": "248", "longitude": "-5.983004288085699"}, {"bonus": "0", "name": "250_CALLE DE SALVADOR ALLENDE", "address": "CALLE DE SALVADOR ALLENDE - Aprox. C/ de Marruecos", "latitude": "37.42182561163263", "fulladdress": "CALLE DE SALVADOR ALLENDE - Aprox. C/ de Marruecos  ", "open": "1", "number": "250", "longitude": "-5.985617204969087"}, {"bonus": "0", "name": "249_CALLE NAVARRA", "address": "CALLE NAVARRA - Aprox. C/ Cataluna", "latitude": "37.42475843174024", "fulladdress": "CALLE NAVARRA - Aprox. C/ Cataluna  ", "open": "1", "number": "249", "longitude": "-5.984823673360926"}, {"bonus": "0", "name": "218_PLAZA DEL ALTOZANO", "address": "PLAZA DEL ALTOZANO - Aprox. C/ San Jorge", "latitude": "37.38512441847878", "fulladdress": "PLAZA DEL ALTOZANO - Aprox. C/ San Jorge  ", "open": "1", "number": "218", "longitude": "-6.003542147441712"}, {"bonus": "0", "name": "251_AVDA. CRUZ CAMPO", "address": "Esquina con Alejandro Collantes", "latitude": "37.38434942457123", "fulladdress": "Esquina con Alejandro Collantes  ", "open": "1", "number": "251", "longitude": "-5.965378365247481"}, {"bonus": "0", "name": "255_PERO MINGO", "address": "Esquina rotanda Torreblanca", "latitude": "37.3856593086086", "fulladdress": "Esquina rotanda Torreblanca  ", "open": "1", "number": "255", "longitude": "-5.913451790889467"}, {"bonus": "0", "name": "252_GASPAR CALDERAS", "address": "GASPAR CALDERAS.- Esquina con Carretera Bellasvistas", "latitude": "37.32458203503861", "fulladdress": "GASPAR CALDERAS.- Esquina con Carretera Bellasvistas  ", "open": "1", "number": "252", "longitude": "-5.968972128124462"}, {"bonus": "0", "name": "256_MIGUEL MONTORO", "address": "Esquina Calle Pero Mingo", "latitude": "37.38610049677862", "fulladdress": "Esquina Calle Pero Mingo  ", "open": "1", "number": "256", "longitude": "-5.910090919676698"}, {"bonus": "0", "name": "259_OCHO DE MARZO", "address": "Esquina Calle Aguila Perdicera", "latitude": "37.36731840562508", "fulladdress": "Esquina Calle Aguila Perdicera  ", "open": "1", "number": "259", "longitude": "-5.954117063090828"}, {"bonus": "0", "name": "260_REVOLTOSA", "address": "Aproximado Parque Amate", "latitude": "37.37702321549204", "fulladdress": "Aproximado Parque Amate  ", "open": "1", "number": "260", "longitude": "-5.947035486155897"}, {"bonus": "0", "name": "253_HOSPITAL VALME", "address": "HOPITAL VALME.-Esquina Carretera Bellasvistas", "latitude": "37.32041786039002", "fulladdress": "HOPITAL VALME.-Esquina Carretera Bellasvistas  ", "open": "1", "number": "253", "longitude": "-5.96902252657327"}, {"bonus": "0", "name": "254_ALHAMBRA", "address": "ALHAMBRA.- Esquina Carretera Bellasvistas", "latitude": "37.32942977136568", "fulladdress": "ALHAMBRA.- Esquina Carretera Bellasvistas  ", "open": "1", "number": "254", "longitude": "-5.968971229675001"}, {"bonus": "0", "name": "257_TORRES ALBARRACIN", "address": "Esquina corazon de MAria", "latitude": "37.38376948792722", "fulladdress": "Esquina corazon de MAria  ", "open": "1", "number": "257", "longitude": "-5.908921914235877"}, {"bonus": "0", "name": "258_ESTACA DE VARES", "address": "Esquina Calle Creus", "latitude": "37.38369648551305", "fulladdress": "Esquina Calle Creus  ", "open": "1", "number": "258", "longitude": "-5.914819934855601"}, {"bonus": "0", "name": "247_AVDA. RAMON Y CAJAL", "address": "Esquina con C/Enramadilla", "latitude": "37.37823143994186", "fulladdress": "Esquina con C/Enramadilla  ", "open": "1", "number": "247", "longitude": "-5.979362157954825"}]