[{"bonus": "0", "name": "063_AVDA. DEL PUERTO I", "address": "Av Puerto 19 (Telefonica)", "latitude": "39.46774709189862", "fulladdress": "Av Puerto 19 (Telefonica)  ", "open": "1", "number": "63", "longitude": "-0.358505044597536"}, {"bonus": "0", "name": "064_AVDA. DEL PUERTO II", "address": "Av. Puerto 61-63", "latitude": "39.46648608901148", "fulladdress": "Av. Puerto 61-63  ", "open": "1", "number": "64", "longitude": "-0.354286031274125"}, {"bonus": "0", "name": "065_AVDA. DEL PUERTO III", "address": "Av. Puerto - Doctor Manuel Candela", "latitude": "39.46548408671991", "fulladdress": "Av. Puerto - Doctor Manuel Candela  ", "open": "1", "number": "65", "longitude": "-0.350928020671138"}, {"bonus": "0", "name": "066_GUILLEN DE ANGLESOLA", "address": "Guillem de Anglesola - Av. Puerto", "latitude": "39.46423908400446", "fulladdress": "Guillem de Anglesola - Av. Puerto  ", "open": "1", "number": "66", "longitude": "-0.346352006288128"}, {"bonus": "0", "name": "067_JUAN VERDEGUER", "address": "Juan Verdeguer - Toneleros", "latitude": "39.45882806883267", "fulladdress": "Juan Verdeguer - Toneleros  ", "open": "1", "number": "67", "longitude": "-0.336888975014669"}, {"bonus": "0", "name": "068_AVDA. DEL PUERTO IV", "address": "Av. Puerto - Jose Aguilar", "latitude": "39.46277108052299", "fulladdress": "Av. Puerto - Jose Aguilar  ", "open": "1", "number": "68", "longitude": "-0.341823991929563"}, {"bonus": "0", "name": "069_AVDA. DEL PUERTO", "address": "Av. Puerto - Serreria", "latitude": "39.46192007863096", "fulladdress": "Av. Puerto - Serreria  ", "open": "1", "number": "69", "longitude": "-0.338811982446624"}, {"bonus": "0", "name": "071_AVDA DEL PUERTO VI", "address": "Av. Puerto - Plaza Tribunal de les Aigues", "latitude": "39.46034807501619", "fulladdress": "Av. Puerto - Plaza Tribunal de les Aigues  ", "open": "1", "number": "71", "longitude": "-0.333621966050435"}, {"bonus": "0", "name": "072_RAMIRO MAETZU", "address": "Ramiro de Maeztu - Peris Brell", "latitude": "39.46721209400214", "fulladdress": "Ramiro de Maeztu - Peris Brell  ", "open": "1", "number": "72", "longitude": "-0.346399008039668"}, {"bonus": "0", "name": "073_JERONIMO MONSORIU", "address": "Jeronimo Monsoriu - Industria", "latitude": "39.46622709180114", "fulladdress": "Jeronimo Monsoriu - Industria  ", "open": "1", "number": "73", "longitude": "-0.342969997228533"}, {"bonus": "0", "name": "074_PLAZA SAN FELIPE NERI", "address": "Plaza San Felipe Neri (Mercado Algiros)", "latitude": "39.46991710072805", "fulladdress": "Plaza San Felipe Neri (Mercado Algiros)  ", "open": "1", "number": "74", "longitude": "-0.353825031741888"}, {"bonus": "0", "name": "075_CAMPOAMOR I", "address": "Republica Argentina - Campoamor", "latitude": "39.47208110868038", "fulladdress": "Republica Argentina - Campoamor  ", "open": "1", "number": "75", "longitude": "-0.351792026815861"}, {"bonus": "0", "name": "076_CAMPOAMOR II", "address": "Campoamor - Musico Gines", "latitude": "39.4700511045018", "fulladdress": "Campoamor - Musico Gines  ", "open": "1", "number": "76", "longitude": "-0.343552001034738"}, {"bonus": "0", "name": "078_AVDA. ARAGON I", "address": "Aragon - Vicente Sancho Tello", "latitude": "39.46991309911343", "fulladdress": "Aragon - Vicente Sancho Tello  ", "open": "1", "number": "78", "longitude": "-0.358779046585651"}, {"bonus": "0", "name": "079_AVDA. ARAGON II", "address": "Aragon - Ernesto Ferrer", "latitude": "39.47274710913562", "fulladdress": "Aragon - Ernesto Ferrer  ", "open": "1", "number": "79", "longitude": "-0.357333043778256"}, {"bonus": "0", "name": "080_AMADEO SAVOIA", "address": "Amadeo de Saboya (frente Ayuntamiento)", "latitude": "39.47371011075012", "fulladdress": "Amadeo de Saboya (frente Ayuntamiento)  ", "open": "1", "number": "80", "longitude": "-0.362389059448826"}, {"bonus": "0", "name": "081_DOCTOR FORNOS", "address": "Micer Masco - Rodriguez Fornos", "latitude": "39.47509611584928", "fulladdress": "Micer Masco - Rodriguez Fornos  ", "open": "1", "number": "81", "longitude": "-0.361069056238335"}, {"bonus": "0", "name": "085_AVDA_BLASCO IBANEZ 1", "address": "Blasco Ibanez - Jaime Roig", "latitude": "39.47943212926333", "fulladdress": "Blasco Ibanez - Jaime Roig  ", "open": "1", "number": "85", "longitude": "-0.364806069768998"}, {"bonus": "0", "name": "87_AVDA BLASCO IBANEZ 2", "address": "Blasco Ibanez - Doctor Gomez Ferrer (Clinico)", "latitude": "39.47848612698768", "fulladdress": "Blasco Ibanez - Doctor Gomez Ferrer (Clinico)  ", "open": "1", "number": "87", "longitude": "-0.361971060764256"}, {"bonus": "0", "name": "088_AVDA. BLASCO IBANEZ 3", "address": "Blasco Ibanez, 28 (F. Geografia e Historia)", "latitude": "39.47748012383395", "fulladdress": "Blasco Ibanez, 28 (F. Geografia e Historia)  ", "open": "1", "number": "88", "longitude": "-0.361233058011854"}, {"bonus": "0", "name": "092_AVDA. DE ARAGON, 4 - ESQ AVDA BLASCO IBANEZ", "address": "Blasco Ibanez - Aragon", "latitude": "39.47582811993382", "fulladdress": "Blasco Ibanez - Aragon  ", "open": "1", "number": "92", "longitude": "-0.356059041618514"}, {"bonus": "0", "name": "094_AVDA. BLASCO IBANEZ 5", "address": "Blasco Ibanez - Clariano", "latitude": "39.47534611972441", "fulladdress": "Blasco Ibanez - Clariano  ", "open": "1", "number": "94", "longitude": "-0.351674028220146"}, {"bonus": "0", "name": "096_AVDA. BLASCO IBANEZ 6", "address": "Blasco Ibanez - Yecla", "latitude": "39.47352211466433", "fulladdress": "Blasco Ibanez - Yecla  ", "open": "1", "number": "96", "longitude": "-0.348305017144382"}, {"bonus": "0", "name": "097_AVDA. BLASCO IBANEZ 7", "address": "Blasco Ibanez 121", "latitude": "39.47303611466866", "fulladdress": "Blasco Ibanez 121  ", "open": "1", "number": "97", "longitude": "-0.343223001657882"}, {"bonus": "0", "name": "098_SANTOS JUSTO Y PASTOR", "address": "Justo y Pastor - Duque de Gaeta", "latitude": "39.46964810153237", "fulladdress": "Justo y Pastor - Duque de Gaeta  ", "open": "1", "number": "98", "longitude": "-0.348533015740284"}, {"bonus": "0", "name": "099_AVDA. BLASCO IBANEZ 8", "address": "Blasco Ibanez - Pintor Jose Mongrell", "latitude": "39.47131210971465", "fulladdress": "Blasco Ibanez - Pintor Jose Mongrell  ", "open": "1", "number": "99", "longitude": "-0.34057499279659"}, {"bonus": "0", "name": "100_AVDA. BLASCO IBANEZ 9", "address": "Blasco Ibanez - Mestre Ripoll", "latitude": "39.47160211144683", "fulladdress": "Blasco Ibanez - Mestre Ripoll  ", "open": "1", "number": "100", "longitude": "-0.33824098596173"}, {"bonus": "0", "name": "101_AVDA. BLASCO IBANEZ 10", "address": "Marino Blas de Lezo (estacion Cabanal Adif)", "latitude": "39.47003610739571", "fulladdress": "Marino Blas de Lezo (estacion Cabanal Adif)  ", "open": "1", "number": "101", "longitude": "-0.334451973768557"}, {"bonus": "0", "name": "102_AVDA.RAMON LLUL", "address": "Ramon Llull - Serpis", "latitude": "39.47580112282824", "fulladdress": "Ramon Llull - Serpis  ", "open": "1", "number": "102", "longitude": "-0.346811013895548"}, {"bonus": "0", "name": "103_RUBEN DARIO", "address": "Ruben Dario - Plaza Fray Luis Colomer", "latitude": "39.47842112983494", "fulladdress": "Ruben Dario - Plaza Fray Luis Colomer  ", "open": "1", "number": "103", "longitude": "-0.35246203223541"}, {"bonus": "0", "name": "108_ LUIS PEIXO", "address": "Luis Peixo 20", "latitude": "39.47365411982902", "fulladdress": "Luis Peixo 20  ", "open": "1", "number": "108", "longitude": "-0.333702973476317"}, {"bonus": "0", "name": "109_AVDA. NARANJOS", "address": "Naranjos - Ingeniero Fausto Elio", "latitude": "39.47678713041781", "fulladdress": "Naranjos - Ingeniero Fausto Elio  ", "open": "1", "number": "109", "longitude": "-0.333600974859012"}, {"bonus": "0", "name": "117_PRIMADO REIG", "address": "Gasco Oliag - Primado Reig", "latitude": "39.47921913101099", "fulladdress": "Gasco Oliag - Primado Reig  ", "open": "1", "number": "117", "longitude": "-0.357156046729095"}, {"bonus": "0", "name": "150_DR. MANUEL CANDELA", "address": "Manuel Candela - Rodriguez de Cepeda", "latitude": "39.4676890942275", "fulladdress": "Manuel Candela - Rodriguez de Cepeda  ", "open": "1", "number": "150", "longitude": "-0.350700021177111"}, {"bonus": "0", "name": "151_JERONIMO MONSORIU", "address": "Jeronimo Monsoriu - Alcalde Cano Coloma", "latitude": "39.46463708827678", "fulladdress": "Jeronimo Monsoriu - Alcalde Cano Coloma  ", "open": "1", "number": "151", "longitude": "-0.337207979114133"}, {"bonus": "0", "name": "154_PESCADORES", "address": "Pescadores - Progreso", "latitude": "39.46984410830488", "fulladdress": "Pescadores - Progreso  ", "open": "1", "number": "154", "longitude": "-0.329644959268791"}, {"bonus": "0", "name": "158_DR.LLUNCH", "address": "Doctor Lluch - Virgen del Sufragio", "latitude": "39.46666609819163", "fulladdress": "Doctor Lluch - Virgen del Sufragio  ", "open": "1", "number": "158", "longitude": "-0.327809952057852"}, {"bonus": "0", "name": "159_FRANCISCO CUBELLS", "address": "Francisco Cubells - San Jose de la Vega", "latitude": "39.46341708497314", "fulladdress": "Francisco Cubells - San Jose de la Vega  ", "open": "1", "number": "159", "longitude": "-0.334812971276553"}, {"bonus": "0", "name": "160_JOSE MARIA DE HARO", "address": "Jose Maria de Haro - Justo y Pastor", "latitude": "39.46730409669327", "fulladdress": "Jose Maria de Haro - Justo y Pastor  ", "open": "1", "number": "160", "longitude": "-0.33907198613268"}, {"bonus": "0", "name": "161_MEDITERRANEO", "address": "Mediterraneo - Plaza Cruz de Canamelar", "latitude": "39.46793710117598", "fulladdress": "Mediterraneo - Plaza Cruz de Canamelar  ", "open": "1", "number": "161", "longitude": "-0.331816964744236"}, {"bonus": "0", "name": "162_PZA. ARMADA ESPANOLA", "address": "Armada Espanola - Mariano Cuber", "latitude": "39.46357208709311", "fulladdress": "Armada Espanola - Mariano Cuber  ", "open": "1", "number": "162", "longitude": "-0.32988595660341"}, {"bonus": "0", "name": "163_PASEO NEPTUNO", "address": "Paseo Neptuno 32-34", "latitude": "39.46440509197379", "fulladdress": "Paseo Neptuno 32-34  ", "open": "1", "number": "163", "longitude": "-0.323491937905993"}, {"bonus": "0", "name": "164_PAVIA 1", "address": "Pavia - Columbretes", "latitude": "39.46842810512786", "fulladdress": "Pavia - Columbretes  ", "open": "1", "number": "164", "longitude": "-0.324724943771547"}, {"bonus": "0", "name": "165_PAVIA 2", "address": "Pavia - Espadan", "latitude": "39.47137711508329", "fulladdress": "Pavia - Espadan  ", "open": "1", "number": "165", "longitude": "-0.324660945171817"}, {"bonus": "0", "name": "166_PROGRESO", "address": "Don Vicente Guillot - Progreso", "latitude": "39.47331712024639", "fulladdress": "Don Vicente Guillot - Progreso  ", "open": "1", "number": "166", "longitude": "-0.328901958917283"}, {"bonus": "0", "name": "167_PAVIA 3", "address": "Pavia - Acequia de la Cadena", "latitude": "39.4748761268572", "fulladdress": "Pavia - Acequia de la Cadena  ", "open": "1", "number": "167", "longitude": "-0.324700947178956"}, {"bonus": "0", "name": "168_AVDA. MALVARROSA", "address": "Malvarrosa - Rio Tajo", "latitude": "39.47683913241012", "fulladdress": "Malvarrosa - Rio Tajo  ", "open": "1", "number": "168", "longitude": "-0.327977958049006"}, {"bonus": "0", "name": "169_PAVIA 4", "address": "Pavia (Instituto Isabel de Villena)", "latitude": "39.47875313990507", "fulladdress": "Pavia (Instituto Isabel de Villena)  ", "open": "1", "number": "169", "longitude": "-0.324735949373236"}, {"bonus": "0", "name": "170_PAVIA 5", "address": "Isabel de Villena - Mendizabal", "latitude": "39.48294115378812", "fulladdress": "Isabel de Villena - Mendizabal  ", "open": "1", "number": "170", "longitude": "-0.325424953690914"}, {"bonus": "0", "name": "171_CALLE GRAN CANARIA", "address": "Gran Canaria - Ingeniero Manuel Maese", "latitude": "39.48302815289556", "fulladdress": "Gran Canaria - Ingeniero Manuel Maese  ", "open": "1", "number": "171", "longitude": "-0.329098964737767"}, {"bonus": "0", "name": "057_CALLE PINTOR MONLEON", "address": "Alameda - Pintor Monleon", "latitude": "39.46444408081199", "fulladdress": "Alameda - Pintor Monleon  ", "open": "1", "number": "57", "longitude": "-0.35834704234339"}, {"bonus": "0", "name": "54_PASEO ALAMEDA", "address": "Plaza de Europa", "latitude": "39.45974606677287", "fulladdress": "Plaza de Europa  ", "open": "1", "number": "54", "longitude": "-0.352781023126671"}, {"bonus": "0", "name": "059_AVDA. DE BALEARES I", "address": "Baleares - Rio Escalona", "latitude": "39.46305607733176", "fulladdress": "Baleares - Rio Escalona  ", "open": "1", "number": "59", "longitude": "-0.354640030484729"}, {"bonus": "0", "name": "060_AVDA.BALEARES II", "address": "Baleares - Lebon", "latitude": "39.46219907534027", "fulladdress": "Baleares - Lebon  ", "open": "1", "number": "60", "longitude": "-0.351867021712218"}, {"bonus": "0", "name": "061_VICENTE VIDAL", "address": "Vicent Vidal - Pintor Maella", "latitude": "39.46126107345635", "fulladdress": "Vicent Vidal - Pintor Maella  ", "open": "1", "number": "61", "longitude": "-0.347921009381426"}, {"bonus": "0", "name": "062_MENORCA", "address": "Menorca - Baleares", "latitude": "39.45977907030124", "fulladdress": "Menorca - Baleares  ", "open": "1", "number": "62", "longitude": "-0.342242991568314"}, {"bonus": "0", "name": "031_CALLE SALAMANCA", "address": "Salamanca - Conde Altea", "latitude": "39.46733308836422", "fulladdress": "Salamanca - Conde Altea  ", "open": "1", "number": "31", "longitude": "-0.365119064198398"}, {"bonus": "0", "name": "032_C/ CONDE DE ALTEA", "address": "Conde Altea - Almirante Cadarso", "latitude": "39.4659740827401", "fulladdress": "Conde Altea - Almirante Cadarso  ", "open": "0", "number": "32", "longitude": "-0.368338073115823"}, {"bonus": "0", "name": "34_AVDA. ANTIGUO REINO DE VALENCIA", "address": "Regne de Valencia - Doctor Sumsi", "latitude": "39.46409007583113", "fulladdress": "Regne de Valencia - Doctor Sumsi  ", "open": "1", "number": "34", "longitude": "-0.370052077239064"}, {"bonus": "0", "name": "35_C/ DUQUE DE CALABRIA", "address": "Regne de Valencia - Almirante Cadarso", "latitude": "39.46371707553277", "fulladdress": "Regne de Valencia - Almirante Cadarso  ", "open": "0", "number": "35", "longitude": "-0.367085068143159"}, {"bonus": "0", "name": "37_AVDA. PERIS Y VALERO", "address": "Peris y Valero - Luis Santangel", "latitude": "39.46090558239442", "fulladdress": "Peris y Valero - Luis Santangel  ", "open": "1", "number": "37", "longitude": "-0.366531327258963"}, {"bonus": "0", "name": "38_AVDA. PERIS Y VALERO", "address": "Peris y Valero - Cabo Jubi", "latitude": "39.45936982867725", "fulladdress": "Peris y Valero - Cabo Jubi  ", "open": "1", "number": "38", "longitude": "-0.370340076012569"}, {"bonus": "0", "name": "39_AVDA. PERIS Y VALERO", "address": "Peris y Valero - Cuba", "latitude": "39.45782205340102", "fulladdress": "Peris y Valero - Cuba  ", "open": "1", "number": "39", "longitude": "-0.374022085762198"}, {"bonus": "0", "name": "41_AVDA. GRAL. URRUTIA", "address": "General Urrutia - Granada", "latitude": "39.45888005993559", "fulladdress": "General Urrutia - Granada  ", "open": "1", "number": "41", "longitude": "-0.364867058884755"}, {"bonus": "0", "name": "42_AVDA. DE LA PLATA", "address": "Av. de la Plata (Museo Fallero)", "latitude": "39.45874906147631", "fulladdress": "Av. de la Plata (Museo Fallero)  ", "open": "1", "number": "42", "longitude": "-0.358749040474832"}, {"bonus": "0", "name": "43_C/ DE ORIENTE", "address": "Escultor Jose Capuz - Oriente", "latitude": "39.45944506301512", "fulladdress": "Escultor Jose Capuz - Oriente  ", "open": "1", "number": "43", "longitude": "-0.361244048329219"}, {"bonus": "0", "name": "44_AVDA. GRAL. URRUTIA", "address": "General Urrutia - Av. de la Plata", "latitude": "39.45639705213127", "fulladdress": "General Urrutia - Av. de la Plata  ", "open": "1", "number": "44", "longitude": "-0.363105052261891"}, {"bonus": "0", "name": "45_AVDA. GRAL. URRUTIA", "address": "Hermanos Maristas - General Urrutia", "latitude": "39.45378704370325", "fulladdress": "Hermanos Maristas - General Urrutia  ", "open": "1", "number": "45", "longitude": "-0.361946047377204"}, {"bonus": "0", "name": "46_AVDA. INSTITUTO OBRERO DE VALENCIA", "address": "Pintor Luis Arcas - Inst. Obrero Valenciano", "latitude": "39.45547705039899", "fulladdress": "Pintor Luis Arcas - Inst. Obrero Valenciano  ", "open": "1", "number": "46", "longitude": "-0.358878039093959"}, {"bonus": "0", "name": "47_AVDA. AUTOPISTA DEL SALER", "address": "Autopista del Saler - Puente Monteolivete", "latitude": "39.45648005487459", "fulladdress": "Autopista del Saler - Puente Monteolivete  ", "open": "1", "number": "47", "longitude": "-0.355509029538065"}, {"bonus": "0", "name": "48_AVDA. ANTONIO FERRANDIS", "address": "Antonio Ferrandis - General Urrutia", "latitude": "39.45077514200509", "fulladdress": "Antonio Ferrandis - General Urrutia  ", "open": "1", "number": "48", "longitude": "-0.358643429344464"}, {"bonus": "0", "name": "49_C/ RICARDO MUNOZ SUAY", "address": "Ricardo Munoz Suay - Maria Jose Victoria Fuster (C.C. El Saler)", "latitude": "39.45295472217668", "fulladdress": "Ricardo Munoz Suay - Maria Jose Victoria Fuster (C.C. El Saler)  ", "open": "1", "number": "49", "longitude": "-0.35720111550767"}, {"bonus": "0", "name": "50_AVDA. AUTOPISTA DEL SALER", "address": "Autopista del Saler - Antonio Ferrandis (C.C. El Saler)", "latitude": "39.45328604493341", "fulladdress": "Autopista del Saler - Antonio Ferrandis (C.C. El Saler)  ", "open": "1", "number": "50", "longitude": "-0.352950020141597"}, {"bonus": "0", "name": "51_PSO. DE LAS MORERAS", "address": "Moreras (Oceanografico)", "latitude": "39.45215104293519", "fulladdress": "Moreras (Oceanografico)  ", "open": "1", "number": "51", "longitude": "-0.347318002649104"}, {"bonus": "0", "name": "52_C/ LUIS GARCIA BERLANGA", "address": "Luis Garcia Berlanga Marti - Menorca", "latitude": "39.45600205620843", "fulladdress": "Luis Garcia Berlanga Marti - Menorca  ", "open": "1", "number": "52", "longitude": "-0.346431002074561"}, {"bonus": "0", "name": "53_C/ LUIS GARCIA BERLANGA", "address": "Alameda - Pintor Maella", "latitude": "39.456732058086", "fulladdress": "Alameda - Pintor Maella  ", "open": "1", "number": "53", "longitude": "-0.348230007860048"}, {"bonus": "0", "name": "55_AVDA. DE FRANCIA", "address": "Francia - Pintor Maella", "latitude": "39.45931106660426", "fulladdress": "Francia - Pintor Maella  ", "open": "1", "number": "55", "longitude": "-0.348777010892994"}, {"bonus": "0", "name": "56_AVDA. DE FRANCIA", "address": "Francia - Menorca", "latitude": "39.45838906488428", "fulladdress": "Francia - Menorca  ", "open": "1", "number": "56", "longitude": "-0.344495997567289"}, {"bonus": "0", "name": "77_C/ MOLINELL", "address": "Molinell - Calderon de la Barca", "latitude": "39.48494114752994", "fulladdress": "Molinell - Calderon de la Barca  ", "open": "1", "number": "77", "longitude": "-0.365758075579642"}, {"bonus": "0", "name": "83_PZA. DE LA LEGION ESPANOLA", "address": "General Elio - Llano del Real", "latitude": "39.47755312220108", "fulladdress": "General Elio - Llano del Real  ", "open": "1", "number": "83", "longitude": "-0.367061075518166"}, {"bonus": "0", "name": "89_AVDA. BLASCO IBANEZ", "address": "Blasco Ibanez, 23 (F. Filosofia y Psicologia)", "latitude": "39.47777012539991", "fulladdress": "Blasco Ibanez, 23 (F. Filosofia y Psicologia)  ", "open": "1", "number": "89", "longitude": "-0.359409052701581"}, {"bonus": "0", "name": "90_AVDA. BLASCO IBANEZ", "address": "Blasco Ibanez, 32 (F. Filologia)", "latitude": "39.47670212191253", "fulladdress": "Blasco Ibanez, 32 (F. Filologia)  ", "open": "1", "number": "90", "longitude": "-0.35905805107551"}, {"bonus": "0", "name": "95_AVDA. DE LOS NARANJOS", "address": "Naranjos (Magisterio)", "latitude": "39.47980313650945", "fulladdress": "Naranjos (Magisterio)  ", "open": "1", "number": "95", "longitude": "-0.34621001424835"}, {"bonus": "0", "name": "104_ALBALAT DELS TARONGERS", "address": "Albalat dels Tarongers - Paseo Facultades", "latitude": "39.47835413125328", "fulladdress": "Albalat dels Tarongers - Paseo Facultades  ", "open": "1", "number": "104", "longitude": "-0.34736601693197"}, {"bonus": "0", "name": "105_AVDA. DE LOS NARANJOS", "address": "Aularios Universidad de Valencia", "latitude": "39.47765812979686", "fulladdress": "Aularios Universidad de Valencia  ", "open": "1", "number": "105", "longitude": "-0.344611008304436"}, {"bonus": "0", "name": "106_AVDA. DE LOS NARANJOS", "address": "Albalat dels Tarongers - Professor Ernest Lluch", "latitude": "39.47671212762051", "fulladdress": "Albalat dels Tarongers - Professor Ernest Lluch  ", "open": "1", "number": "106", "longitude": "-0.341477998410525"}, {"bonus": "0", "name": "107_C/ CAMPILLO ALTO BUEY", "address": "Campillo de Altobuey (Polideportivo)", "latitude": "39.47521312423745", "fulladdress": "Campillo de Altobuey (Polideportivo)  ", "open": "1", "number": "107", "longitude": "-0.336314982139155"}, {"bonus": "0", "name": "112_AVDA. DE LOS NARANJOS", "address": "Manuel Broseta i Pont - Naranjos", "latitude": "39.47854813352072", "fulladdress": "Manuel Broseta i Pont - Naranjos  ", "open": "1", "number": "112", "longitude": "-0.342366002058633"}, {"bonus": "0", "name": "115_C/ DR. VICENTE ZARAGOZA", "address": "Cataluna - Doctor Vicente Zaragoza", "latitude": "39.48153014038569", "fulladdress": "Cataluna - Doctor Vicente Zaragoza  ", "open": "1", "number": "115", "longitude": "-0.352239033238509"}, {"bonus": "0", "name": "116_C/ DR. VICENTE ZARAGOZA", "address": "Doctor Vicente Zaragoza - Ramon Asensio", "latitude": "39.48322114434121", "fulladdress": "Doctor Vicente Zaragoza - Ramon Asensio  ", "open": "1", "number": "116", "longitude": "-0.357652050365347"}, {"bonus": "0", "name": "118_C/ DR. GOMEZ FERRER", "address": "Gomez Ferrer - Alvaro de Bazan", "latitude": "39.4804341340267", "fulladdress": "Gomez Ferrer - Alvaro de Bazan  ", "open": "1", "number": "118", "longitude": "-0.360507057423573"}, {"bonus": "0", "name": "119_C/ JAIME ROIG", "address": "Jaime Roig - Bachiller", "latitude": "39.48248814004604", "fulladdress": "Jaime Roig - Bachiller  ", "open": "1", "number": "119", "longitude": "-0.363317066947724"}, {"bonus": "0", "name": "120_C_DR VICENTE ZARAGOZA", "address": "Doctor Vicente Zaragoza - Emilio Baro", "latitude": "39.48484814838159", "fulladdress": "Doctor Vicente Zaragoza - Emilio Baro  ", "open": "1", "number": "120", "longitude": "-0.362137064678155"}, {"bonus": "0", "name": "121_C_MURTA", "address": "Murta - Sant Eperit", "latitude": "39.48615015382428", "fulladdress": "Murta - Sant Eperit  ", "open": "1", "number": "121", "longitude": "-0.358862055563278"}, {"bonus": "0", "name": "122_C_MUSICO HIPOLITO MARTINEZ", "address": "Musico Hipolito Martinez - Diogenes Lopez Mecho", "latitude": "39.48445314961921", "fulladdress": "Musico Hipolito Martinez - Diogenes Lopez Mecho  ", "open": "1", "number": "122", "longitude": "-0.354157040555065"}, {"bonus": "0", "name": "123_C_ALBOCACER", "address": "Albocacer - Vinaroz", "latitude": "39.48763915689091", "fulladdress": "Albocacer - Vinaroz  ", "open": "1", "number": "123", "longitude": "-0.364932074551232"}, {"bonus": "0", "name": "124_C/ AZAGADOR DE ALBORAYA", "address": "Azagador de Alboraya - Dolores Marques", "latitude": "39.48846916061659", "fulladdress": "Azagador de Alboraya - Dolores Marques  ", "open": "1", "number": "124", "longitude": "-0.362046066347782"}, {"bonus": "0", "name": "125_C/ MASQUEFA", "address": "Masquefa, 42 - 44", "latitude": "39.48966116570713", "fulladdress": "Masquefa, 42 - 44  ", "open": "1", "number": "125", "longitude": "-0.358709056987903"}, {"bonus": "0", "name": "126_C/ ALFAUIR", "address": "Alfahuir - Jose Chabas Bordehore", "latitude": "39.49306617670531", "fulladdress": "Alfahuir - Jose Chabas Bordehore  ", "open": "1", "number": "126", "longitude": "-0.36019506326505"}, {"bonus": "0", "name": "127_C/ DUQUE DE MANDAS", "address": "Alfahuir - Duque de Mandas", "latitude": "39.49055916686075", "fulladdress": "Alfahuir - Duque de Mandas  ", "open": "1", "number": "127", "longitude": "-0.36453707493258"}, {"bonus": "0", "name": "128_C/ ALFAUIR", "address": "Alfahuir - Peniscola", "latitude": "39.48873415971327", "fulladdress": "Alfahuir - Peniscola  ", "open": "1", "number": "128", "longitude": "-0.367635083238739"}, {"bonus": "0", "name": "129_C_ALMAZORA", "address": "Almazora - Benimuslem", "latitude": "39.48594314953203", "fulladdress": "Almazora - Benimuslem  ", "open": "1", "number": "129", "longitude": "-0.37003608893869"}, {"bonus": "0", "name": "130_C/ CONVENTO CARMELITAS", "address": "Convento Carmelitas - Alboraya", "latitude": "39.48320614021858", "fulladdress": "Convento Carmelitas - Alboraya  ", "open": "1", "number": "130", "longitude": "-0.370301088264948"}, {"bonus": "0", "name": "131_C/ ALBORAYA", "address": "Alboraya - Flora", "latitude": "39.48062113119549", "fulladdress": "Alboraya - Flora  ", "open": "1", "number": "131", "longitude": "-0.371254089734112"}, {"bonus": "0", "name": "132_C/ RUAYA", "address": "Platero Suarez - Milagrosa", "latitude": "39.48525414608695", "fulladdress": "Platero Suarez - Milagrosa  ", "open": "1", "number": "132", "longitude": "-0.373525099027208"}, {"bonus": "0", "name": "133_C/ ALFAMBRA", "address": "Alfambra - Poeta Monmeneu", "latitude": "39.48272413676827", "fulladdress": "Alfambra - Poeta Monmeneu  ", "open": "1", "number": "133", "longitude": "-0.375973105008805"}, {"bonus": "0", "name": "134_C/ MAXIMILIANO THOUS", "address": "Maximiliano Thous - Luz Casanova", "latitude": "39.48762415410862", "fulladdress": "Maximiliano Thous - Luz Casanova  ", "open": "1", "number": "134", "longitude": "-0.373430100012801"}, {"bonus": "0", "name": "135_AVDA. CONSTITUCION", "address": "Constitucion - Reus", "latitude": "39.48567014586083", "fulladdress": "Constitucion - Reus  ", "open": "1", "number": "135", "longitude": "-0.378592114439778"}, {"bonus": "0", "name": "139_C/ REUS", "address": "Reus - Alqueria de la Estrella", "latitude": "39.48567414446925", "fulladdress": "Reus - Alqueria de la Estrella  ", "open": "1", "number": "139", "longitude": "-0.382964127549696"}, {"bonus": "0", "name": "141_C/ GREGORIO GEA (PEATONAL)", "address": "Gregorio Gea - Padre Ferris", "latitude": "39.48323613551247", "fulladdress": "Gregorio Gea - Padre Ferris  ", "open": "1", "number": "141", "longitude": "-0.385247133088568"}, {"bonus": "0", "name": "142_C/ GREGORIO GEA (PEATONAL)", "address": "Gregorio Gea - Profesor Beltran Baguena", "latitude": "39.48188812951767", "fulladdress": "Gregorio Gea - Profesor Beltran Baguena  ", "open": "1", "number": "142", "longitude": "-0.389750145869399"}, {"bonus": "0", "name": "143_AVDA. MENENDEZ PIDAL", "address": "Pio XII - Menendez PIdal (Nuevo Centro)", "latitude": "39.47950512106764", "fulladdress": "Pio XII - Menendez PIdal (Nuevo Centro)  ", "open": "1", "number": "143", "longitude": "-0.391027148421504"}, {"bonus": "0", "name": "146_AVDA. CAMPANAR", "address": "Av. Campanar (La Fe)", "latitude": "39.48507813986351", "fulladdress": "Av. Campanar (La Fe)  ", "open": "1", "number": "146", "longitude": "-0.391043151456223"}, {"bonus": "0", "name": "149_AVDA. PERIS Y VALERO", "address": "Peris y Valero - Salamanca", "latitude": "39.46290207446641", "fulladdress": "Peris y Valero - Salamanca  ", "open": "1", "number": "149", "longitude": "-0.361886052119026"}, {"bonus": "0", "name": "152_C/ LITERATO AZORIN", "address": "Reina Dona Maria - Cadiz", "latitude": "39.46089306415877", "fulladdress": "Reina Dona Maria - Cadiz  ", "open": "1", "number": "152", "longitude": "-0.372796083742631"}, {"bonus": "0", "name": "153_C/ LLANO DE ZAIDA", "address": "Llano de la Zaidia - Doctor Oloriz", "latitude": "39.48313013675752", "fulladdress": "Llano de la Zaidia - Doctor Oloriz  ", "open": "1", "number": "153", "longitude": "-0.380263118087985"}, {"bonus": "0", "name": "155_C/ SALAMANCA", "address": "Salamanca - Reina Dona Germana", "latitude": "39.46492108086036", "fulladdress": "Salamanca - Reina Dona Germana  ", "open": "0", "number": "155", "longitude": "-0.363169057053421"}, {"bonus": "0", "name": "156_C/ CUBA", "address": "Puerto Rico - Cuba", "latitude": "39.46093206311247", "fulladdress": "Puerto Rico - Cuba  ", "open": "1", "number": "156", "longitude": "-0.376436094678165"}, {"bonus": "0", "name": "029_PLAZA AMERICA", "address": "Plaza America - Cirilo Amoros - Sorni", "latitude": "39.47008009754055", "fulladdress": "Plaza America - Cirilo Amoros - Sorni  ", "open": "1", "number": "29", "longitude": "-0.36539006649012"}, {"bonus": "0", "name": "009_PLAZA_TETUAN_4", "address": "Plaza de Tetuan", "latitude": "39.47432311035458", "fulladdress": "Plaza de Tetuan  ", "open": "1", "number": "9", "longitude": "-0.370021082654504"}, {"bonus": "0", "name": "013_PZA. ALFONSO MAGNANIMO_CON_CALLE_LA_NAVE", "address": "Alfonso el Magnanimo - Nave", "latitude": "39.47203010231691", "fulladdress": "Alfonso el Magnanimo - Nave  ", "open": "1", "number": "13", "longitude": "-0.370965084251257"}, {"bonus": "0", "name": "014_BARON CARCER", "address": "Huesca - Baron de Carcer", "latitude": "39.46893508902061", "fulladdress": "Huesca - Baron de Carcer  ", "open": "1", "number": "14", "longitude": "-0.379815109120643"}, {"bonus": "0", "name": "015_RIBERA", "address": "Ribera - Plaza Ayuntamiento", "latitude": "39.46905609068855", "fulladdress": "Ribera - Plaza Ayuntamiento  ", "open": "1", "number": "15", "longitude": "-0.375728096943875"}, {"bonus": "0", "name": "016_COLON I", "address": "Colon, 60", "latitude": "39.47006009581504", "fulladdress": "Colon, 60  ", "open": "1", "number": "16", "longitude": "-0.370524081869223"}, {"bonus": "0", "name": "018_COLON II", "address": "Colon 20-22", "latitude": "39.46815908853249", "fulladdress": "Colon 20-22  ", "open": "1", "number": "18", "longitude": "-0.373220088928677"}, {"bonus": "0", "name": "028_NAVARRO REVERTE", "address": "Navarro Reverter - Grabador Esteve", "latitude": "39.47155010170615", "fulladdress": "Navarro Reverter - Grabador Esteve  ", "open": "1", "number": "28", "longitude": "-0.367842074631205"}, {"bonus": "0", "name": "148_ESTACION RENFE", "address": "Estacion del Norte", "latitude": "39.46576307890842", "fulladdress": "Estacion del Norte  ", "open": "1", "number": "148", "longitude": "-0.377991101943858"}, {"bonus": "0", "name": "017_ESTACION RENFE I", "address": "Xativa - Bailen (Estacion del Norte)", "latitude": "39.46743608475953", "fulladdress": "Xativa - Bailen (Estacion del Norte)  ", "open": "0", "number": "17", "longitude": "-0.377350100922523"}, {"bonus": "0", "name": "030_CIRILO AMOROS", "address": "Cirilo Amoros - Jorge Juan (Mercado Colon)", "latitude": "39.46856909141103", "fulladdress": "Cirilo Amoros - Jorge Juan (Mercado Colon)  ", "open": "1", "number": "30", "longitude": "-0.368590075268948"}, {"bonus": "0", "name": "011_PZA_AYTO_CON_CALLE_COTANDA", "address": "Plaza Ayuntamiento - Cotanda", "latitude": "39.47115409745501", "fulladdress": "Plaza Ayuntamiento - Cotanda  ", "open": "1", "number": "11", "longitude": "-0.376875101498657"}, {"bonus": "0", "name": "005_PINTOR_LOPEZ_PZA_POETA_LLORENTE", "address": "Plaza Poeta Llorente", "latitude": "39.47686311853029", "fulladdress": "Plaza Poeta Llorente  ", "open": "1", "number": "5", "longitude": "-0.371231087646942"}, {"bonus": "0", "name": "006_GUILLEN_CASTRO_CON_CALLE_SAN_PEDRO_PASCUAL", "address": "Guillem de Castro - San Pedro Pascual", "latitude": "39.47276610053889", "fulladdress": "Guillem de Castro - San Pedro Pascual  ", "open": "1", "number": "6", "longitude": "-0.384174124251856"}, {"bonus": "0", "name": "036_PZA_LOS_FUEROS_CONDE_TRENOR", "address": "Plaza de los Fueros - Conde Trenor", "latitude": "39.47904012448793", "fulladdress": "Plaza de los Fueros - Conde Trenor  ", "open": "1", "number": "36", "longitude": "-0.375527101694727"}, {"bonus": "0", "name": "001_GUILLEN_DE_CASTRO", "address": "Guillem de Castro (Beneficiencia)", "latitude": "39.47817811900004", "fulladdress": "Guillem de Castro (Beneficiencia)  ", "open": "0", "number": "1", "longitude": "-0.383541125260106"}, {"bonus": "0", "name": "002_CALLE_SALVADOR_GINER_CALLE_MUSEO", "address": "Salvador Giner - C. Museo", "latitude": "39.4798571258551", "fulladdress": "Salvador Giner - C. Museo  ", "open": "1", "number": "2", "longitude": "-0.379839115061075"}, {"bonus": "0", "name": "007_PZA_DEL_MERCADO_TAULA_DE_CANVIS", "address": "Plaza del Mercado - Taula de Canvis", "latitude": "39.47484010911423", "fulladdress": "Plaza del Mercado - Taula de Canvis  ", "open": "1", "number": "7", "longitude": "-0.379276110679168"}, {"bonus": "0", "name": "010_CALLE_DEL_HOSPITAL_FRENTE_CALLE_HORNO_DEL_HOSP", "address": "Hospital - Horno del Hospital", "latitude": "39.47078409432719", "fulladdress": "Hospital - Horno del Hospital  ", "open": "1", "number": "10", "longitude": "-0.382701118769287"}, {"bonus": "0", "name": "082_GUILLEN_DE_CASTRO_TORRES_DE_QUART", "address": "Guillem de Castro (Torres de Quart)", "latitude": "39.47602411158443", "fulladdress": "Guillem de Castro (Torres de Quart)  ", "open": "1", "number": "82", "longitude": "-0.384005125495213"}, {"bonus": "0", "name": "147_CALLE_PIE_DE_LA_CRUZ_CALLE_DE_LA_REJA", "address": "Pie de la Cruz - Rejas", "latitude": "39.47316910314809", "fulladdress": "Pie de la Cruz - Rejas  ", "open": "1", "number": "147", "longitude": "-0.38029811284559"}, {"bonus": "0", "name": "020_FERNANDO_EL_CATOLICO_CALLE_QUART", "address": "Quart - Fernando el Catolico", "latitude": "39.47500210686962", "fulladdress": "Quart - Fernando el Catolico  ", "open": "1", "number": "20", "longitude": "-0.387938136740957"}, {"bonus": "0", "name": "003_PLAZA_MUSICO_LOPEZ_CHAVARRI", "address": "Plaza del Musico Lopez Chavarri", "latitude": "39.47680311538018", "fulladdress": "Plaza del Musico Lopez Chavarri  ", "open": "1", "number": "3", "longitude": "-0.38037911504075"}, {"bonus": "0", "name": "004_PLAZA_DE_LA_VIRGEN_CALLE_BAILIA", "address": "Plaza de la Virgen - Bailia", "latitude": "39.47671511667689", "fulladdress": "Plaza de la Virgen - Bailia  ", "open": "1", "number": "4", "longitude": "-0.375433100164395"}, {"bonus": "0", "name": "008_PLAZA_DE_LA_REINA_ESQUINA_CALLE_DEL_MAR", "address": "Plaza de la Reina - Mar", "latitude": "39.47428810857441", "fulladdress": "Plaza de la Reina - Mar  ", "open": "1", "number": "8", "longitude": "-0.375175098086736"}, {"bonus": "0", "name": "058_PLAZA DE ESPANA", "address": "Plaza Espana", "latitude": "39.46618607914484", "fulladdress": "Plaza Espana  ", "open": "1", "number": "58", "longitude": "-0.381677113224894"}, {"bonus": "0", "name": "033_GRAN_VIA_GERMANIAS_ESQ_CALLE_RUZAFA", "address": "Germanias - Ruzafa", "latitude": "39.46478607687619", "fulladdress": "Germanias - Ruzafa  ", "open": "1", "number": "33", "longitude": "-0.37408108969372"}, {"bonus": "0", "name": "110_KISSHOMARU", "address": "UPV Trinquet", "latitude": "39.48070814260447", "fulladdress": "UPV Trinquet  ", "open": "1", "number": "110", "longitude": "-0.336770986463246"}, {"bonus": "0", "name": "111_COLEGIO MAYOR", "address": "UPV Galileo", "latitude": "39.48018413958651", "fulladdress": "UPV Galileo  ", "open": "1", "number": "111", "longitude": "-0.340651997804929"}, {"bonus": "0", "name": "113_ETS CAMINOS", "address": "UPV Caminos", "latitude": "39.48124414217441", "fulladdress": "UPV Caminos  ", "open": "1", "number": "113", "longitude": "-0.343702007510602"}, {"bonus": "0", "name": "114_ADOLFO SUAREZ", "address": "UPV Informatica", "latitude": "39.48177214299267", "fulladdress": "UPV Informatica  ", "open": "1", "number": "114", "longitude": "-0.346682016720988"}, {"bonus": "0", "name": "019_JUAN_LLORENS", "address": "Juan Llorens - Quart", "latitude": "39.47433710342028", "fulladdress": "Juan Llorens - Quart  ", "open": "1", "number": "19", "longitude": "-0.391681147609965"}, {"bonus": "0", "name": "021_JUAN_LLORENS_29", "address": "Juan Llorens - Literato Gabriel Miro", "latitude": "39.4723390971218", "fulladdress": "Juan Llorens - Literato Gabriel Miro  ", "open": "1", "number": "21", "longitude": "-0.390305142409828"}, {"bonus": "0", "name": "022_JUAN_LLORENS_57", "address": "Angel Guimera - Juan Llorens", "latitude": "39.46975508900285", "fulladdress": "Angel Guimera - Juan Llorens  ", "open": "1", "number": "22", "longitude": "-0.388444135439494"}, {"bonus": "0", "name": "023_GRAN_VIA_FERNANDO_EL_CATOLICO", "address": "Fernando el Catolico - Erudito Orellana", "latitude": "39.47159609591605", "fulladdress": "Fernando el Catolico - Erudito Orellana  ", "open": "1", "number": "23", "longitude": "-0.3862691299059"}, {"bonus": "0", "name": "024_GRAN_VIA_RAMON_Y_CAJAL", "address": "Fernando el Catolico - Cuenca", "latitude": "39.46904508800291", "fulladdress": "Fernando el Catolico - Cuenca  ", "open": "1", "number": "24", "longitude": "-0.384118122083548"}, {"bonus": "0", "name": "025_CALLE_DEL_ALBERIC", "address": "Alberique, 18 (Abastos)", "latitude": "39.46769708197544", "fulladdress": "Alberique, 18 (Abastos)  ", "open": "1", "number": "25", "longitude": "-0.388701135103807"}, {"bonus": "0", "name": "026_CALLE_SAN_JOSE_DE_CALASANZ", "address": "San Jose de Calasanz - Salas Quiroga", "latitude": "39.46616307762487", "fulladdress": "San Jose de Calasanz - Salas Quiroga  ", "open": "1", "number": "26", "longitude": "-0.386143126606345"}, {"bonus": "0", "name": "027_CALLE_SAN_VICENTE_MARTIR_129", "address": "San Vicente Martir - Doctor Vila Barbera", "latitude": "39.46333006942278", "fulladdress": "San Vicente Martir - Doctor Vila Barbera  ", "open": "1", "number": "27", "longitude": "-0.381942112481819"}, {"bonus": "0", "name": "136_CALLE_ECONOMISTA_GAY", "address": "Economista Gay - Constitucion", "latitude": "39.4899091610835", "fulladdress": "Economista Gay - Constitucion  ", "open": "1", "number": "136", "longitude": "-0.375701108044157"}, {"bonus": "0", "name": "137_CALLE_ECONOMISTA_GAY", "address": "Economista Gay - Luis Crumiere", "latitude": "39.48900115664549", "fulladdress": "Economista Gay - Luis Crumiere  ", "open": "1", "number": "137", "longitude": "-0.379987120406342"}, {"bonus": "0", "name": "138_SAN_PANCRACIO", "address": "San Pancracio - Periodista Llorente", "latitude": "39.48815815241352", "fulladdress": "San Pancracio - Periodista Llorente  ", "open": "1", "number": "138", "longitude": "-0.384313132924836"}, {"bonus": "0", "name": "140_AVENIDA_CAMPANAR", "address": "Campanar - Nicasio Benlloch", "latitude": "39.48797215005971", "fulladdress": "Campanar - Nicasio Benlloch  ", "open": "1", "number": "140", "longitude": "-0.38969114895134"}, {"bonus": "0", "name": "144_CALLE_MARQUES_DE_SAN_JUAN", "address": "Marques de San Juan - Diputat Lluis Lucia", "latitude": "39.47874711704846", "fulladdress": "Marques de San Juan - Diputat Lluis Lucia  ", "open": "1", "number": "144", "longitude": "-0.395571161644053"}, {"bonus": "0", "name": "145_PLAZA_BADAJOZ", "address": "Plaza Badajoz", "latitude": "39.48151512545125", "fulladdress": "Plaza Badajoz  ", "open": "1", "number": "145", "longitude": "-0.398486171871458"}, {"bonus": "0", "name": "157_AVENIDA_PEREZ_GALDOS", "address": "Perez Galdos - Marques de Zenete", "latitude": "39.464020069969", "fulladdress": "Perez Galdos - Marques de Zenete  ", "open": "1", "number": "157", "longitude": "-0.387457129393968"}, {"bonus": "0", "name": "172_AVENIDA_PIO_XII", "address": "Pio XII - Campanar", "latitude": "39.48143012678756", "fulladdress": "Pio XII - Campanar  ", "open": "1", "number": "172", "longitude": "-0.39343615667867"}, {"bonus": "0", "name": "173_AVENIDA_PIO_XII_34", "address": "Pio XII - Monestir de Poblet", "latitude": "39.48450913674717", "fulladdress": "Pio XII - Monestir de Poblet  ", "open": "1", "number": "173", "longitude": "-0.394769162326153"}, {"bonus": "0", "name": "174_CALLE_MONDUBER", "address": "Monduber - Peset Aleixandre", "latitude": "39.48940615584413", "fulladdress": "Monduber - Peset Aleixandre  ", "open": "1", "number": "174", "longitude": "-0.386738140863954"}, {"bonus": "0", "name": "175_CALLE_JUAN_XXIII", "address": "Juan XXIII - Domingo Gomez", "latitude": "39.49255716773316", "fulladdress": "Juan XXIII - Domingo Gomez  ", "open": "1", "number": "175", "longitude": "-0.382803130751858"}, {"bonus": "0", "name": "176_CAMINO_DE_MONCADA_52", "address": "Cno. Moncada - Pedro Patricio Mey", "latitude": "39.49198516704239", "fulladdress": "Cno. Moncada - Pedro Patricio Mey  ", "open": "1", "number": "176", "longitude": "-0.378944118876901"}, {"bonus": "0", "name": "177_CALLE_ALCUDIA", "address": "Alcudia de Crespins - Pedro Patricio Mey", "latitude": "39.49351317391559", "fulladdress": "Alcudia de Crespins - Pedro Patricio Mey  ", "open": "1", "number": "177", "longitude": "-0.373579103612918"}, {"bonus": "0", "name": "178_CALLE_REIG_GENOVES", "address": "Reig Genoves - Ramon Contreras Mongrell", "latitude": "39.49218417039226", "fulladdress": "Reig Genoves - Ramon Contreras Mongrell  ", "open": "1", "number": "178", "longitude": "-0.37059709396399"}, {"bonus": "0", "name": "179_AVENIDA_DE_LA_PLATA_45", "address": "Av. de la Plata - Zapadores", "latitude": "39.45544004779678", "fulladdress": "Av. de la Plata - Zapadores  ", "open": "1", "number": "179", "longitude": "-0.366517061973888"}, {"bonus": "0", "name": "180_AVENIDA_DOCTOR_WAKSMAN", "address": "Doctor Waksman - Nieves", "latitude": "39.45598904826899", "fulladdress": "Doctor Waksman - Nieves  ", "open": "1", "number": "180", "longitude": "-0.370774075033782"}, {"bonus": "0", "name": "181_CALLE_DEL_SALINAR", "address": "Zapadores, 23", "latitude": "39.45796705574948", "fulladdress": "Zapadores, 23  ", "open": "1", "number": "181", "longitude": "-0.368282068629998"}, {"bonus": "0", "name": "012_CALLE_MINYANA", "address": "Minana - Poeta Querol", "latitude": "39.47119409848577", "fulladdress": "Minana - Poeta Querol  ", "open": "1", "number": "12", "longitude": "-0.374099093197231"}, {"bonus": "0", "name": "194_ESTACION_AVE_JOAQUIN_SOROLLA", "address": "Estacion AVE Joaquin Sorolla", "latitude": "39.46098606179716", "fulladdress": "Estacion AVE Joaquin Sorolla  ", "open": "1", "number": "194", "longitude": "-0.381065108588874"}, {"bonus": "0", "name": "195_CALLE_GIORGETA", "address": "Giorgeta - Roig de Corella", "latitude": "39.45935205521343", "fulladdress": "Giorgeta - Roig de Corella  ", "open": "1", "number": "195", "longitude": "-0.384372117626406"}, {"bonus": "0", "name": "196_AVDA_GASPAR_AGUILAR", "address": "Jeronimo Munoz - Gaspar Aguilar", "latitude": "39.4595430546337", "fulladdress": "Jeronimo Munoz - Gaspar Aguilar  ", "open": "0", "number": "196", "longitude": "-0.388157129082296"}, {"bonus": "0", "name": "202_PASEO_PECHINA", "address": "Pechina - Teruel", "latitude": "39.4761901091111", "fulladdress": "Pechina - Teruel  ", "open": "1", "number": "202", "longitude": "-0.393425153835504"}, {"bonus": "0", "name": "203_CALLE_REINA_VIOLANTE", "address": "Reina Violante - Escultor Garcia Mas", "latitude": "39.48457713488814", "fulladdress": "Reina Violante - Escultor Garcia Mas  ", "open": "1", "number": "203", "longitude": "-0.401273181871356"}, {"bonus": "0", "name": "204_AVDA_GENERAL_AVILES", "address": "Corts Valencianes - General Aviles", "latitude": "39.48581114052686", "fulladdress": "Corts Valencianes - General Aviles  ", "open": "1", "number": "204", "longitude": "-0.396678168748875"}, {"bonus": "0", "name": "205_CALLE_NICASIO_BENLLOCH", "address": "Nicasio Benlloch - Amics dels Corpus", "latitude": "39.48925515326754", "fulladdress": "Nicasio Benlloch - Amics dels Corpus  ", "open": "1", "number": "205", "longitude": "-0.393181160103781"}, {"bonus": "0", "name": "206_CALLE_PERIODISTA_GIL_SUMBIELA", "address": "Periodista Gil Sumbiela - Poeta Serrano Clavero", "latitude": "39.49268016612935", "fulladdress": "Periodista Gil Sumbiela - Poeta Serrano Clavero  ", "open": "1", "number": "206", "longitude": "-0.389098149691761"}, {"bonus": "0", "name": "183_AVDA_AUSIAS_MARCH", "address": "Ausias March - Av. de la Plata", "latitude": "39.452588036275", "fulladdress": "Ausias March - Av. de la Plata  ", "open": "1", "number": "183", "longitude": "-0.372375077997377"}, {"bonus": "0", "name": "185_AVDA_AUSIAS_MARCH", "address": "Ebanista Caselles - Ausias March", "latitude": "39.45001202816097", "fulladdress": "Ebanista Caselles - Ausias March  ", "open": "1", "number": "185", "longitude": "-0.37059407126453"}, {"bonus": "0", "name": "184_CALLE_BOMBER_RAMON_DUART", "address": "Bombero Ramon Duart - Hermanos Maristas", "latitude": "39.45275003899967", "fulladdress": "Bombero Ramon Duart - Hermanos Maristas  ", "open": "1", "number": "184", "longitude": "-0.365661057953976"}, {"bonus": "0", "name": "186_CALLE_INGENIERO_JOAQUIN_BENLLOCH", "address": "Benifairo de Valldigna - Joaquin Benlloch", "latitude": "39.4503590281921", "fulladdress": "Benifairo de Valldigna - Joaquin Benlloch  ", "open": "1", "number": "186", "longitude": "-0.374106081983545"}, {"bonus": "0", "name": "187_AVDA_AUSIAS_MARCH", "address": "Angel Villena - Ausias March", "latitude": "39.44792802167623", "fulladdress": "Angel Villena - Ausias March  ", "open": "1", "number": "187", "longitude": "-0.368909065084874"}, {"bonus": "0", "name": "188_HOSPITAL_NUEVA_FE", "address": "Hospital Nueva Fe (consultas externas)", "latitude": "39.44446300836761", "fulladdress": "Hospital Nueva Fe (consultas externas)  ", "open": "1", "number": "188", "longitude": "-0.373882078122754"}, {"bonus": "0", "name": "189_HOSPITAL_NUEVA_FE", "address": "Hospital Nueva Fe (administracion)", "latitude": "39.4446390082756", "fulladdress": "Hospital Nueva Fe (administracion)  ", "open": "1", "number": "189", "longitude": "-0.37599308454911"}, {"bonus": "0", "name": "190_CTRA_MALILLA", "address": "Cra. Malilla - Bulevar Sur", "latitude": "39.44605001161064", "fulladdress": "Cra. Malilla - Bulevar Sur  ", "open": "1", "number": "190", "longitude": "-0.380387098491455"}, {"bonus": "0", "name": "191_CTRA_MALILLA", "address": "Esparraguera - Cra. Malilla", "latitude": "39.45029702640893", "fulladdress": "Esparraguera - Cra. Malilla  ", "open": "1", "number": "191", "longitude": "-0.378957096498364"}, {"bonus": "0", "name": "192_CTRA_MALILLA", "address": "Cra. Malilla - Olta", "latitude": "39.45260503424732", "fulladdress": "Cra. Malilla - Olta  ", "open": "1", "number": "192", "longitude": "-0.378805097289263"}, {"bonus": "0", "name": "193_CALLE_CARTEROS", "address": "Uruguay - Carteros", "latitude": "39.4551140401216", "fulladdress": "Uruguay - Carteros  ", "open": "1", "number": "193", "longitude": "-0.38680912265075"}, {"bonus": "0", "name": "197_CALLE_FONTANARS_DELS_AFORINS", "address": "Fontanars dels Aforins - Jacinto Labaila", "latitude": "39.4581520485586", "fulladdress": "Fontanars dels Aforins - Jacinto Labaila  ", "open": "1", "number": "197", "longitude": "-0.392424141132886"}, {"bonus": "0", "name": "198_CALLE_FONTANARS_DELS_AFORINS", "address": "Fontanars dels Aforins - Vall d'Uixo", "latitude": "39.46084805669447", "fulladdress": "Fontanars dels Aforins - Vall d'Uixo  ", "open": "1", "number": "198", "longitude": "-0.3954071515343"}, {"bonus": "0", "name": "199_CALLE_BEATO_NICOLAS_FACTOR", "address": "Beato Nicolas Factor - Convento de Jesus", "latitude": "39.4615560602987", "fulladdress": "Beato Nicolas Factor - Convento de Jesus  ", "open": "1", "number": "199", "longitude": "-0.391649140641673"}, {"bonus": "0", "name": "200_AVDA_DEL_CID", "address": "Av. del Cid - Julian Pena", "latitude": "39.4677050805168", "fulladdress": "Av. del Cid - Julian Pena  ", "open": "1", "number": "200", "longitude": "-0.393305148918046"}, {"bonus": "0", "name": "201_AVDA_PEREZ_GALDOS", "address": "Perez Galdos - Nou Moles", "latitude": "39.47168009378495", "fulladdress": "Perez Galdos - Nou Moles  ", "open": "1", "number": "201", "longitude": "-0.393759152416117"}, {"bonus": "0", "name": "182_AVDA_AUSIAS_MARCH", "address": "Ausias March - Pianista Amparo Iturbi", "latitude": "39.45540004489401", "fulladdress": "Ausias March - Pianista Amparo Iturbi  ", "open": "1", "number": "182", "longitude": "-0.375056087555512"}, {"bonus": "0", "name": "207_CALLE_MILLARES_ESQ_CALLE_FEDERICO_GARCA_LORCA", "address": "Giorgeta, 64", "latitude": "39.45536104251403", "fulladdress": "Giorgeta, 64  ", "open": "1", "number": "207", "longitude": "-0.381996108347568"}, {"bonus": "0", "name": "208_CALLE_CARTEROS_ESQ_CALLE_MOSSEN_FEBRER", "address": "Carteros - Mossen Febrer", "latitude": "39.45166002786031", "fulladdress": "Carteros - Mossen Febrer  ", "open": "1", "number": "208", "longitude": "-0.38866912636635"}, {"bonus": "0", "name": "209_AVDA_GASPAR_AGUILAR_ESQ_CALLE_MUSICO_PENELLA", "address": "Gaspar Aguilar - Musico Penella", "latitude": "39.45205002773928", "fulladdress": "Gaspar Aguilar - Musico Penella  ", "open": "1", "number": "209", "longitude": "-0.393106139888379"}, {"bonus": "0", "name": "210_CALLE_CAMPOS_CRESPO_ESQ_CALLE_JUAN_DE_GARAY", "address": "Campos Crespo - Juan de Garay", "latitude": "39.45552103825903", "fulladdress": "Campos Crespo - Juan de Garay  ", "open": "1", "number": "210", "longitude": "-0.396807152864784"}, {"bonus": "0", "name": "211_CALLE_FRAY_JUNIPERO_SERRA_ESQ_CALLE_VALL_D'UIX", "address": "Fray Junipero Serra - Vall d'Uixo", "latitude": "39.45869404863428", "fulladdress": "Fray Junipero Serra - Vall d'Uixo  ", "open": "1", "number": "211", "longitude": "-0.397848157697943"}, {"bonus": "0", "name": "212_CALLE_FRAY_JUANIPERO_SERRA_ESQ_CALLE_TORRENTE", "address": "Fray Juanipero Serra - Torrente", "latitude": "39.46145205709215", "fulladdress": "Fray Juanipero Serra - Torrente  ", "open": "1", "number": "212", "longitude": "-0.40048716710112"}, {"bonus": "0", "name": "213_CALLE_ARCHIDUQUE_CARLOS_ESQ_CALLE_JOSE_MA_MOR", "address": "Archiduque Carlos - Jose Maria Mortes Lerma", "latitude": "39.46313306387255", "fulladdress": "Archiduque Carlos - Jose Maria Mortes Lerma  ", "open": "1", "number": "213", "longitude": "-0.397063157732616"}, {"bonus": "0", "name": "214_CALLE_SANTA_CRUZ_DE_TENERIFE_ESQ_CALLE_LLOMBA", "address": "Santa Cruz de Tenerife, 21", "latitude": "39.46490006867376", "fulladdress": "Santa Cruz de Tenerife, 21  ", "open": "1", "number": "214", "longitude": "-0.400667169496185"}, {"bonus": "0", "name": "215_CALLE_MUSICO_AYLLON_ESQ_CALLE_FRANCISCO_DOLZ", "address": "Musico Ayllon - Francisco Dolz", "latitude": "39.46563907240366", "fulladdress": "Musico Ayllon - Francisco Dolz  ", "open": "1", "number": "215", "longitude": "-0.39683915840866"}, {"bonus": "0", "name": "216_AVDA_DEL_CID_ESQ_CALLE_BURGOS", "address": "Av. del Cid - Burgos", "latitude": "39.4688460824582", "fulladdress": "Av. del Cid - Burgos  ", "open": "1", "number": "216", "longitude": "-0.399226167293882"}, {"bonus": "0", "name": "217_CALLE_9_DE_OCTUBRE_ESQ_CALLE_PINTOR_STOLZ", "address": "Pintor Stolz - Nueve de Octubre", "latitude": "39.47029608559258", "fulladdress": "Pintor Stolz - Nueve de Octubre  ", "open": "1", "number": "217", "longitude": "-0.404687184457659"}, {"bonus": "0", "name": "218_CALLE_SALVADOR_FERRANDIS_LUNA_ESQ_CALLE_JUAN_B", "address": "Salvador Ferrandis Luna - Juan Bautista Vives", "latitude": "39.47070808930705", "fulladdress": "Salvador Ferrandis Luna - Juan Bautista Vives  ", "open": "1", "number": "218", "longitude": "-0.397475163041212"}, {"bonus": "0", "name": "219_CALLE_CASTAN_TOBENAS_ESQ_CALLE_VELAZQUEZ", "address": "Castan Tobenas - Rincon de Ademuz", "latitude": "39.47273109436028", "fulladdress": "Castan Tobenas - Rincon de Ademuz  ", "open": "1", "number": "219", "longitude": "-0.402984180655052"}, {"bonus": "0", "name": "220_CALLE_CASTAN_TOBENAS_ESQ_CALLE_DE_GOYA", "address": "Castan Tobenas - Patriques", "latitude": "39.47382309951806", "fulladdress": "Castan Tobenas - Patriques  ", "open": "1", "number": "220", "longitude": "-0.398412167524643"}, {"bonus": "0", "name": "221_AVDA_MANUEL_DE_FALLA_ESQ_CALLE_HERNANDEZ_LAZAR", "address": "Manuel de Falla - Hernandez Lazaro", "latitude": "39.47523810283483", "fulladdress": "Manuel de Falla - Hernandez Lazaro  ", "open": "1", "number": "221", "longitude": "-0.40294418188015"}, {"bonus": "0", "name": "222_AVDA_MAESTRO_RODRIGO_ESQ_AVDA_MANUEL_DE_FALLA", "address": "Maestro Rodrigo - Manuel de Falla", "latitude": "39.47686111010473", "fulladdress": "Maestro Rodrigo - Manuel de Falla  ", "open": "1", "number": "222", "longitude": "-0.397373166037864"}, {"bonus": "0", "name": "223_CALLE_VALLE_BALLESTERA_ESQ_PLAZA_POLICIA_LOCAL", "address": "Valle de la Ballestera - Hospital Nueve de Octubre", "latitude": "39.47852611446744", "fulladdress": "Valle de la Ballestera - Hospital Nueve de Octubre  ", "open": "1", "number": "223", "longitude": "-0.40127817864509"}, {"bonus": "0", "name": "224_PLAZA_JOSE_MONFORTE_TUDELA_ESQ_CALLE_HERNANDEZ", "address": "Jorge Comin (Metge) - Terrateig", "latitude": "39.48053612047894", "fulladdress": "Jorge Comin (Metge) - Terrateig  ", "open": "1", "number": "224", "longitude": "-0.403679186925212"}, {"bonus": "0", "name": "225_CALLE_PADRE_BARRANCO_DESPUES_CALLE_BENIFAIRO", "address": "Padre Barranco - Carlos Ruano Llopis (Pintor)", "latitude": "39.48807514670377", "fulladdress": "Padre Barranco - Carlos Ruano Llopis (Pintor)  ", "open": "1", "number": "225", "longitude": "-0.401233183623003"}, {"bonus": "0", "name": "226_CALLE_SAFOR_ESQ_AVDA_DE_LAS_CORTES_VALENCIANAS", "address": "Corts Valencianes - La Safor", "latitude": "39.49083215673745", "fulladdress": "Corts Valencianes - La Safor  ", "open": "1", "number": "226", "longitude": "-0.398950178249295"}, {"bonus": "0", "name": "227_CALLE_SAN_CLEMENTE_ENTRA_HOSPITAL_ARNAU_VILANO", "address": "San Clemente - Hospital Arnau de Vilanova", "latitude": "39.49021615335393", "fulladdress": "San Clemente - Hospital Arnau de Vilanova  ", "open": "1", "number": "227", "longitude": "-0.403022190134151"}, {"bonus": "0", "name": "228_AVDA_NICASIO_BENLLOCH_ESQ_CALLE_L'HORTA_SUD", "address": "Doctor Nicasio Benlloch - L'Horta Sud", "latitude": "39.49366016633798", "fulladdress": "Doctor Nicasio Benlloch - L'Horta Sud  ", "open": "1", "number": "228", "longitude": "-0.398762179196655"}, {"bonus": "0", "name": "229_CALLE_AITANA_ESQ_AVDA_BURJASSOT", "address": "Aitana - Florista", "latitude": "39.49307216559276", "fulladdress": "Aitana - Florista  ", "open": "1", "number": "229", "longitude": "-0.394897167291038"}, {"bonus": "0", "name": "230_CALLE_POETA_SERRANO_CLAVERO_EQ_GENERAL_LLORENS", "address": "Poeta Serrano Clavero - General Llorens", "latitude": "39.49471817371506", "fulladdress": "Poeta Serrano Clavero - General Llorens  ", "open": "1", "number": "230", "longitude": "-0.386875144115863"}, {"bonus": "0", "name": "231_CALLE_DE_ALCANIZ_ESQ_CALLE_CAMBRILS", "address": "Alcaniz - Cambrils", "latitude": "39.49504017741737", "fulladdress": "Alcaniz - Cambrils  ", "open": "1", "number": "231", "longitude": "-0.378712119815713"}, {"bonus": "0", "name": "232_SAN_VICENTE_DE_PAUL_SANTIAGO_RUSINOL", "address": "San Vicente Paul - Santiago Rusinol", "latitude": "39.49461218010229", "fulladdress": "San Vicente Paul - Santiago Rusinol  ", "open": "1", "number": "232", "longitude": "-0.365844081019678"}, {"bonus": "0", "name": "233_SAN_JUAN_BOSCO_SANTIAGO_RUSINOL", "address": "San Juan Bosco - Santiago Rusinol", "latitude": "39.497128187401", "fulladdress": "San Juan Bosco - Santiago Rusinol  ", "open": "1", "number": "233", "longitude": "-0.369528093405798"}, {"bonus": "0", "name": "234_PLAZA MUSICO_ESPI_JOSE_ESTEVE", "address": "Plaza Musico Espi", "latitude": "39.49646718382403", "fulladdress": "Plaza Musico Espi  ", "open": "1", "number": "234", "longitude": "-0.373735105660714"}, {"bonus": "0", "name": "235_CONDE_DE_TORREFIEL_CECILIO_PLA", "address": "Conde Torrefiel - Cecilio Pla", "latitude": "39.49801318789519", "fulladdress": "Conde Torrefiel - Cecilio Pla  ", "open": "1", "number": "235", "longitude": "-0.377294117154526"}, {"bonus": "0", "name": "236_RIO_SEGRE_RAFAEL_COMPANY", "address": "Rio Segre - Rafael Company", "latitude": "39.49503417622483", "fulladdress": "Rio Segre - Rafael Company  ", "open": "1", "number": "236", "longitude": "-0.382369130775341"}, {"bonus": "0", "name": "237_LEVANTE_UD_AVDA_ECUADOR", "address": "Levante U.D. - Ecuador", "latitude": "39.4947261723789", "fulladdress": "Levante U.D. - Ecuador  ", "open": "1", "number": "237", "longitude": "-0.391129156875508"}, {"bonus": "0", "name": "238_SAN_JOSE_ARTESANO_FRANCISCO_MOROTE_GREUS", "address": "San Jose Artesano - Francisco Morote Greus", "latitude": "39.49741718038369", "fulladdress": "San Jose Artesano - Francisco Morote Greus  ", "open": "1", "number": "238", "longitude": "-0.394474168343446"}, {"bonus": "0", "name": "239_LA_FLORISTA_TRANVIA_PALACIO_CONGRESOS", "address": "Florista - T4 (Palau de Congressos)", "latitude": "39.49695317703247", "fulladdress": "Florista - T4 (Palau de Congressos)  ", "open": "1", "number": "239", "longitude": "-0.400055184833165"}, {"bonus": "0", "name": "240_CAMP_DEL_TURIA_AVDA_CORTES_VALENCIANAS", "address": "Camp del Turia - Corts Valencianes", "latitude": "39.494972169843", "fulladdress": "Camp del Turia - Corts Valencianes  ", "open": "1", "number": "240", "longitude": "-0.401638188523523"}, {"bonus": "0", "name": "241_VALL_DE_ALBAIDA_PEATONAL", "address": "La Vall d'Albaida - Corts Valencianes", "latitude": "39.49294616289816", "fulladdress": "La Vall d'Albaida - Corts Valencianes  ", "open": "1", "number": "241", "longitude": "-0.401981188470323"}, {"bonus": "0", "name": "242_LA_SAFOR_AVDA_MAESTRO_RODRIGO", "address": "La Safor - Maestro Rodrigo", "latitude": "39.48787514504915", "fulladdress": "La Safor - Maestro Rodrigo  ", "open": "1", "number": "242", "longitude": "-0.404288192680299"}, {"bonus": "0", "name": "243_ALBACETE_ESQ_MALUQUER", "address": "Albacete - Maluquer", "latitude": "39.46278806672407", "fulladdress": "Albacete - Maluquer  ", "open": "1", "number": "243", "longitude": "-0.384633120260506"}, {"bonus": "0", "name": "244_AVDA_PIO_BAROJA_VALLE_DE_LA_BALLESTERA", "address": "Valle de la Ballestera - Pio Baroja", "latitude": "39.47847411270088", "fulladdress": "Valle de la Ballestera - Pio Baroja  ", "open": "1", "number": "244", "longitude": "-0.406227193465013"}, {"bonus": "0", "name": "245_9_DE_OCTUBRE_CIEZA", "address": "Nueve de Octubre - Cieza", "latitude": "39.47202809113153", "fulladdress": "Nueve de Octubre - Cieza  ", "open": "1", "number": "245", "longitude": "-0.405642188252898"}, {"bonus": "0", "name": "246_AVDA_TRES_CRUCES_ENTRADA_HOSPITAL_GENERAL", "address": "Tres Cruces - Hospital General", "latitude": "39.46905808079698", "fulladdress": "Tres Cruces - Hospital General  ", "open": "1", "number": "246", "longitude": "-0.406600189533111"}, {"bonus": "0", "name": "247_AVDA_TRES_CRUCES_MUSICO_AYLLON", "address": "Tres Cruces - Musico Ayllon", "latitude": "39.46737807542721", "fulladdress": "Tres Cruces - Musico Ayllon  ", "open": "1", "number": "247", "longitude": "-0.405664185821979"}, {"bonus": "0", "name": "248_AVDA_TRES_CRUCES_JOSE_MARIA_MORTES_LERMA", "address": "Tres Cruces - Jose Maria Mortes Lerma", "latitude": "39.46280806019345", "fulladdress": "Tres Cruces - Jose Maria Mortes Lerma  ", "open": "1", "number": "248", "longitude": "-0.40506018155276"}, {"bonus": "0", "name": "249_AVDA_TRES_CRUCES_SEGUNDA_REPUBLICA_ESPANOLA", "address": "Tres Cruces - Segunda Republica Espanola", "latitude": "39.45947404965703", "fulladdress": "Tres Cruces - Segunda Republica Espanola  ", "open": "1", "number": "249", "longitude": "-0.402831173069948"}, {"bonus": "0", "name": "250_AVDA_TRES_CRUCES_PIO_XI", "address": "Tres Cruces - Pio XI", "latitude": "39.45604503881071", "fulladdress": "Tres Cruces - Pio XI  ", "open": "1", "number": "250", "longitude": "-0.400570164438297"}, {"bonus": "0", "name": "251_ARQUITECTO_SEGURA_LAGO_CAMINO_NUEVO_DE_PICANA", "address": "Arquitecto Segura del Lago - Camino Nuevo de Picana", "latitude": "39.45579803670432", "fulladdress": "Arquitecto Segura del Lago - Camino Nuevo de Picana  ", "open": "1", "number": "251", "longitude": "-0.404504176110588"}, {"bonus": "0", "name": "252_DE_LOS_GREMIOS_CAMPOS_CRESPO", "address": "Dels Gremis - Campos Crespo", "latitude": "39.45025601826153", "fulladdress": "Dels Gremis - Campos Crespo  ", "open": "1", "number": "252", "longitude": "-0.4036651706049"}, {"bonus": "0", "name": "253_PLAZA_JOSE_MELIA_CASTELLO_CAMPOS_CRESPO", "address": "Jose Melia Castello - Campos Crespo", "latitude": "39.4526940272949", "fulladdress": "Jose Melia Castello - Campos Crespo  ", "open": "1", "number": "253", "longitude": "-0.401192164498328"}, {"bonus": "0", "name": "254_AVDA_DR_TOMAS_SALA_CARTEROS", "address": "Doctor Tomas Sala - Carteros", "latitude": "39.44768201399717", "fulladdress": "Doctor Tomas Sala - Carteros  ", "open": "1", "number": "254", "longitude": "-0.39000812823506"}, {"bonus": "0", "name": "255_SAN_VICENTE_MARTIR_TOMAS_DE_VILLAROYA", "address": "Tomas de Villarroya - San Vicente", "latitude": "39.44767101522146", "fulladdress": "Tomas de Villarroya - San Vicente  ", "open": "1", "number": "255", "longitude": "-0.386120116565009"}, {"bonus": "0", "name": "256_AVDA_TRES_FORQUES_TURIS", "address": "Tres Forques - Turis", "latitude": "39.4639310680958", "fulladdress": "Tres Forques - Turis  ", "open": "1", "number": "256", "longitude": "-0.392326143951058"}, {"bonus": "0", "name": "86_AVDA_GASPAR_AGUILAR_ESQ_VICENTE_PARRA", "address": "Gaspar Aguilar - Vicente Parra", "latitude": "39.45520803898995", "fulladdress": "Gaspar Aguilar - Vicente Parra  ", "open": "1", "number": "86", "longitude": "-0.391284136125771"}, {"bonus": "0", "name": "258_PINTOR_RAFAEL_SOLVES_ESQ_JOSE_SOTO_MICO", "address": "Pintor Rafael Solves - Jose Soto Mico", "latitude": "39.43979598762512", "fulladdress": "Pintor Rafael Solves - Jose Soto Mico  ", "open": "1", "number": "258", "longitude": "-0.38922812163005"}, {"bonus": "0", "name": "262_AVDA_TRES_FORQUES_COLONIA_ESPANOLA_DE_MEXICO", "address": "Tres Forques - Colonia Espanola de Mexico", "latitude": "39.46344006095387", "fulladdress": "Tres Forques - Colonia Espanola de Mexico  ", "open": "1", "number": "262", "longitude": "-0.409316194664879"}, {"bonus": "0", "name": "263_PADRE ESTEBAN_PERNET_ANTES_CASA_MISERICORDIA", "address": "Padre Esteban Pernet - Casa Misericordia", "latitude": "39.46701107287583", "fulladdress": "Padre Esteban Pernet - Casa Misericordia  ", "open": "1", "number": "263", "longitude": "-0.409735197841415"}, {"bonus": "0", "name": "264_AVDA_CID_ANTES_MARCONI", "address": "Av. del Cid - Marconi", "latitude": "39.46912807848099", "fulladdress": "Av. del Cid - Marconi  ", "open": "1", "number": "264", "longitude": "-0.414523213347863"}, {"bonus": "0", "name": "266_PLANA_ALTA_ESQ_AVDA_MAESTRO_RODRIGO", "address": "Canal de Navarres - Maestro Rodrigo", "latitude": "39.49025715238982", "fulladdress": "Canal de Navarres - Maestro Rodrigo  ", "open": "1", "number": "266", "longitude": "-0.406462200475517"}, {"bonus": "0", "name": "40_CALLE_BARCAS_FRENTE _TEATRO_PRINCIPAL", "address": "Barcas, 11", "latitude": "39.47043409565897", "fulladdress": "Barcas, 11  ", "open": "1", "number": "40", "longitude": "-0.374915095234885"}, {"bonus": "0", "name": "70_CALLE_COLON_ESQ_ALMIRANTE_ROGER_DE_LAURIA", "address": "Colon, 27", "latitude": "39.46935809305045", "fulladdress": "Colon, 27  ", "open": "1", "number": "70", "longitude": "-0.371753085175853"}, {"bonus": "0", "name": "091_CALLE_GRABADOR_JORDAN_46_PLAZA_ESCULTOR_PASTOR", "address": "Grabador Jordan - Escultor Pastor", "latitude": "39.44409300914037", "fulladdress": "Grabador Jordan - Escultor Pastor  ", "open": "1", "number": "91", "longitude": "-0.367664059275921"}, {"bonus": "0", "name": "93_AVADA_BLASCO_IBANEZ_DESP_C_POETA_DURAN_TORTAJAD", "address": "Blasco Ibanez - Poeta Duran Tortajada", "latitude": "39.47225011180076", "fulladdress": "Blasco Ibanez - Poeta Duran Tortajada  ", "open": "1", "number": "93", "longitude": "-0.34390000326249"}, {"bonus": "0", "name": "272_VICENTE_LA_RODA_C_INGENIERO_FAUSTO_ELIO", "address": "Vicente la Roda - Ingeniero Fausto Elio", "latitude": "39.48059114365945", "fulladdress": "Vicente la Roda - Ingeniero Fausto Elio  ", "open": "1", "number": "272", "longitude": "-0.332280972954351"}, {"bonus": "0", "name": "273_CALLE_MORAIRA_CALLE_DALT_DE_LA_MAR", "address": "Moraira - Alta del Mar", "latitude": "39.4502730411407", "fulladdress": "Moraira - Alta del Mar  ", "open": "1", "number": "273", "longitude": "-0.33336295982062"}, {"bonus": "0", "name": "274_MANUEL_ANDRES_CASTELL_DE_POLOP", "address": "San Francisco de Paula - Castell de Pop", "latitude": "39.44803803363359", "fulladdress": "San Francisco de Paula - Castell de Pop  ", "open": "1", "number": "274", "longitude": "-0.333278958357397"}, {"bonus": "0", "name": "275_CAMINO_DE_LAS_MORERAS_ESQ_RONDA_DE_NAZARET", "address": "Moreras - Rona de Nazaret", "latitude": "39.45227304729963", "fulladdress": "Moreras - Rona de Nazaret  ", "open": "1", "number": "275", "longitude": "-0.33515596627555"}, {"bonus": "0", "name": "257_PLAZA_SALVADOR_SORIA_ESQ_PIO_X", "address": "Plaza Salvador Soria, 8", "latitude": "39.44521900594571", "fulladdress": "Plaza Salvador Soria, 8  ", "open": "1", "number": "257", "longitude": "-0.389195124464717"}, {"bonus": "0", "name": "270_CALLE_NINOT_ESQ_PZA_REGINO_MAS", "address": "Ninot - Regino Mas", "latitude": "39.50004318971825", "fulladdress": "Ninot - Regino Mas  ", "open": "1", "number": "270", "longitude": "-0.392980165265021"}, {"bonus": "0", "name": "271_CALLE_SALVADOR_CERVERO_CALLE_CARLOS_CORTINA", "address": "Salvador Cervero - Carlos Cortina", "latitude": "39.49924718799308", "fulladdress": "Salvador Cervero - Carlos Cortina  ", "open": "1", "number": "271", "longitude": "-0.389982155850781"}, {"bonus": "0", "name": "259_CALLE_PIO_IX_POLIDEPORTIVO_RAMBLETA", "address": "Pio IX - Musico Cabanilles", "latitude": "39.44542800538199", "fulladdress": "Pio IX - Musico Cabanilles  ", "open": "1", "number": "259", "longitude": "-0.393106136312086"}, {"bonus": "0", "name": "265_C_ALCASSER_POETA_ALBERTO_LISTA", "address": "Alcasser - Poeta Alberto Lista", "latitude": "39.47094108663578", "fulladdress": "Alcasser - Poeta Alberto Lista  ", "open": "1", "number": "265", "longitude": "-0.408208195369257"}, {"bonus": "0", "name": "267_C_BENIFERRI_VICENTE_TOMAS_MARTI", "address": "Beniferri - Vicent Tomas Marti", "latitude": "39.4941361656198", "fulladdress": "Beniferri - Vicent Tomas Marti  ", "open": "1", "number": "267", "longitude": "-0.406020201221407"}, {"bonus": "0", "name": "84_SERRERIA_ESQ_PINTOR FERRER CALATAYUD", "address": "Serreria, 67", "latitude": "39.46726209778759", "fulladdress": "Serreria, 67  ", "open": "1", "number": "84", "longitude": "-0.335255974679776"}, {"bonus": "0", "name": "260_DELS_FERRERS_ESQ_TRAGINERS", "address": "Traginers - Pedrapiquers", "latitude": "39.45952404837945", "fulladdress": "Traginers - Pedrapiquers  ", "open": "1", "number": "260", "longitude": "-0.407308186532079"}, {"bonus": "0", "name": "261_PZA_XUQUER_ESQ_VINALOPO", "address": "Plaza Xuquer - Vinalopo", "latitude": "39.47664412448885", "fulladdress": "Plaza Xuquer - Vinalopo  ", "open": "1", "number": "261", "longitude": "-0.350468025305313"}, {"bonus": "0", "name": "268_PZA_LUIS_CANO_5", "address": "Plaza Luis Cano, 5", "latitude": "39.50141318615774", "fulladdress": "Plaza Luis Cano, 5  ", "open": "1", "number": "268", "longitude": "-0.418584242795808"}, {"bonus": "0", "name": "269_CAMPAMENTO_81", "address": "Campamento, 81", "latitude": "39.49987517848677", "fulladdress": "Campamento, 81  ", "open": "1", "number": "269", "longitude": "-0.426354265293528"}, {"bonus": "0", "name": "276_EDIFICIO_VELES_E_VENTS", "address": "Veles e Vents", "latitude": "39.4619430835605", "fulladdress": "Veles e Vents  ", "open": "1", "number": "276", "longitude": "-0.323855937664754"}]