[{"bonus": "0", "name": "099 - JUBILE", "address": "JUBILE - BOULEVARD DU JUBILE/ JUBELFEESTLAAN 79", "latitude": "50.864992", "fulladdress": "JUBILE - BOULEVARD DU JUBILE/ JUBELFEESTLAAN 79  ", "open": "1", "number": "99", "longitude": "4.338431"}, {"bonus": "0", "name": "083 - SIMONIS", "address": "SIMONIS / BD LEOPOLD II (DEVANT 282)/ LEOPOLD II-LAAN (N\u00b0 282)", "latitude": "50.86284", "fulladdress": "SIMONIS / BD LEOPOLD II (DEVANT 282)/ LEOPOLD II-LAAN (N\u00b0 282)  ", "open": "1", "number": "83", "longitude": "4.33126"}, {"bonus": "0", "name": "084 - STE ANNE/SINT-ANNA", "address": "STE ANNE/SINT-ANNA  -  RUE DE L'EGLISE STE ANNE/SINT-ANNAKERKSTRAAT 116", "latitude": "50.85896", "fulladdress": "STE ANNE/SINT-ANNA  -  RUE DE L'EGLISE STE ANNE/SINT-ANNAKERKSTRAAT 116  ", "open": "1", "number": "84", "longitude": "4.330107"}, {"bonus": "0", "name": "085 - ETANGS NOIRS/ZWARTE VIJVERS", "address": "ETANGS NOIRS /ZWARTE VIJVERS - CHEE DE GAND/STEENWEG OP GENT", "latitude": "50.8572655240874", "fulladdress": "ETANGS NOIRS /ZWARTE VIJVERS - CHEE DE GAND/STEENWEG OP GENT  ", "open": "1", "number": "85", "longitude": "4.33236837868758"}, {"bonus": "0", "name": "086 - MAISON COMMUNAL DE JETTE/GEMEENTEHUIS JETTE", "address": "MAISON COMMUNALE DE JETTE / GEMEENTEHUIS JETTE - CHAUSSEE DE WEMMEL/WEMMELSESTEENWEG 102", "latitude": "50.876195", "fulladdress": "MAISON COMMUNALE DE JETTE / GEMEENTEHUIS JETTE - CHAUSSEE DE WEMMEL/WEMMELSESTEENWEG 102  ", "open": "1", "number": "86", "longitude": "4.324477"}, {"bonus": "0", "name": "089 - ATHENEE DE JETTE/ATHENEUM VAN JETTE", "address": "ATHENEE DE JETTE/ATHENEUM VAN JETTE - AVENUE DE LEVIS MIREPOIX / DE LEVIS MIREPOIXLAAN 100", "latitude": "50.8711927450574", "fulladdress": "ATHENEE DE JETTE/ATHENEUM VAN JETTE - AVENUE DE LEVIS MIREPOIX / DE LEVIS MIREPOIXLAAN 100  ", "open": "1", "number": "89", "longitude": "4.32992476563641"}, {"bonus": "1", "name": "100 - GARE DU LUXEMBOURG/LUXEMBOURGSTATION", "address": "GARE DU LUXEMBOURG/STATION  LUXEMBOURG - RUE DE TREVES / TRIERSTRAAT", "latitude": "50.838411", "fulladdress": "GARE DU LUXEMBOURG/STATION  LUXEMBOURG - RUE DE TREVES / TRIERSTRAAT  ", "open": "1", "number": "100", "longitude": "4.37302"}, {"bonus": "0", "name": "101 - ZELLIK", "address": "ZELLIK - CHAUSSEE DE ZELLIK 4", "latitude": "50.869204", "fulladdress": "ZELLIK - CHAUSSEE DE ZELLIK 4  ", "open": "1", "number": "101", "longitude": "4.291663"}, {"bonus": "0", "name": "102 - MUSEUM/MUSEUM", "address": "MUSEUM - CHAUSSEE DE WAVRE (FACE 229 - 233)  /  WAVERSESTEENWEG (TEGENOVER 229 - 233)", "latitude": "50.83579", "fulladdress": "MUSEUM - CHAUSSEE DE WAVRE (FACE 229 - 233)  /  WAVERSESTEENWEG (TEGENOVER 229 - 233)  ", "open": "1", "number": "102", "longitude": "4.375782"}, {"bonus": "0", "name": "103 - ERNEST SOLVAY/ERNEST SOLVAY", "address": "ERNEST SOLVAY - RUE DE L'ARBRE BENIT/GEWIJDE BOOMSTRAAT 2-4-6", "latitude": "50.834792", "fulladdress": "ERNEST SOLVAY - RUE DE L'ARBRE BENIT/GEWIJDE BOOMSTRAAT 2-4-6  ", "open": "1", "number": "103", "longitude": "4.364115"}, {"bonus": "1", "name": "104 - FERNAND COCQ/FERNAND COCQ", "address": "FERNAND COCQ - PLACE FERNAND COCQ (FACE AU 19-23) / FERNAND COCQPLEIN (TEGENOVER 19 - 23) (FERMEE)", "latitude": "50.833304", "fulladdress": "FERNAND COCQ - PLACE FERNAND COCQ (FACE AU 19-23) / FERNAND COCQPLEIN (TEGENOVER 19 - 23) (FERMEE)  ", "open": "1", "number": "104", "longitude": "4.366611"}, {"bonus": "0", "name": "105 - DE HENNIN", "address": "DE HENNIN -  CHAUSSEE D'IXELLES/ELSENSE STEENWEG 254 - 260", "latitude": "50.829631", "fulladdress": "DE HENNIN -  CHAUSSEE D'IXELLES/ELSENSE STEENWEG 254 - 260  ", "open": "1", "number": "105", "longitude": "4.3692"}, {"bonus": "1", "name": "106 - GERMOIR/MOUTERIJ", "address": "GERMOIR/MOUTERIJ - AVENUE DE LA COURONNE/KROONLAAN 92-94-96", "latitude": "50.830012", "fulladdress": "GERMOIR/MOUTERIJ - AVENUE DE LA COURONNE/KROONLAAN 92-94-96  ", "open": "1", "number": "106", "longitude": "4.378625"}, {"bonus": "0", "name": "107 - DEFACQZ/DEFACQZ", "address": "DEFACQZ - RUE DEFACQZ/ DEFACQZSTRAAT 25-27-29", "latitude": "50.827652", "fulladdress": "DEFACQZ - RUE DEFACQZ/ DEFACQZSTRAAT 25-27-29  ", "open": "1", "number": "107", "longitude": "4.359031"}, {"bonus": "0", "name": "108 - FLAGEY/FLAGEY", "address": "FLAGEY - PLACE FLAGEY (FACE 11)/EUGENE FLAGEYPLEIN (TEGENOVER 11)", "latitude": "50.828012", "fulladdress": "FLAGEY - PLACE FLAGEY (FACE 11)/EUGENE FLAGEYPLEIN (TEGENOVER 11)  ", "open": "1", "number": "108", "longitude": "4.371756"}, {"bonus": "0", "name": "109 - CHATELAIN/KASTELEIN", "address": "CHATELAIN/KASTELEIN - RUE DE L'AQUEDUC /AQUADUCTSTRAAT 115-117-119", "latitude": "50.824048", "fulladdress": "CHATELAIN/KASTELEIN - RUE DE L'AQUEDUC /AQUADUCTSTRAAT 115-117-119  ", "open": "1", "number": "109", "longitude": "4.359896"}, {"bonus": "0", "name": "110 - RODIN/RODIN", "address": "RODIN - AVENUE DE LA COURONNE (DEVANT 145 D) / KROONLAAN (N\u00b0 145 D)", "latitude": "50.826992", "fulladdress": "RODIN - AVENUE DE LA COURONNE (DEVANT 145 D) / KROONLAAN (N\u00b0 145 D)  ", "open": "1", "number": "110", "longitude": "4.382379"}, {"bonus": "0", "name": "111 - ETANGS MELLAERTS", "address": "ETANGS MELLAERTS - BOULEVARD DU SOUVERAIN FACE / VORSTLAAN VOOR 275", "latitude": "50.827831", "fulladdress": "ETANGS MELLAERTS - BOULEVARD DU SOUVERAIN FACE / VORSTLAAN VOOR 275  ", "open": "1", "number": "111", "longitude": "4.431822"}, {"bonus": "1", "name": "112 - PAGE/EDELKNAAP", "address": "PAGE-EDELKNAAP  -  CHAUSSEE DE WATERLOO/  WATERLOOSE STEENWEG 440 - 442", "latitude": "50.821567", "fulladdress": "PAGE-EDELKNAAP  -  CHAUSSEE DE WATERLOO/  WATERLOOSE STEENWEG 440 - 442  ", "open": "1", "number": "112", "longitude": "4.356508"}, {"bonus": "0", "name": "113 - ABBAYE DE LA CAMBRE / ABDIJ TER KAMEREN", "address": "ABBAYE DE LA CAMBRE/ABDIJ TER KAMEREN - AVENUE EMILE DURAY (FACE AU N\u00b0 2) /EMILE DURAYLAAN (TEGENOVER N\u00b0 2)", "latitude": "50.820042", "fulladdress": "ABBAYE DE LA CAMBRE/ABDIJ TER KAMEREN - AVENUE EMILE DURAY (FACE AU N\u00b0 2) /EMILE DURAYLAAN (TEGENOVER N\u00b0 2)  ", "open": "1", "number": "113", "longitude": "4.374785"}, {"bonus": "0", "name": "114 - SAISONS/JAARGETIJDEN", "address": "SAISONS/JAARGETIJDEN  -  AVENUE DES SAISONS (N\u00b02) / JAARGETIJDENLAAN (N\u00b02)", "latitude": "50.820391", "fulladdress": "SAISONS/JAARGETIJDEN  -  AVENUE DES SAISONS (N\u00b02) / JAARGETIJDENLAAN (N\u00b02)  ", "open": "1", "number": "114", "longitude": "4.385358"}, {"bonus": "0", "name": "115 - PETITE SUISSE/KLEIN ZWITSERLAND", "address": "PETITE SUISSE / KLEIN ZWITSERLAND - PLACE DE LA PETITE SUISSE (FACE 16-18) / KLEIN ZWITSERLANDPLEIN (TEGENOVER 16 - 18)", "latitude": "50.817775", "fulladdress": "PETITE SUISSE / KLEIN ZWITSERLAND - PLACE DE LA PETITE SUISSE (FACE 16-18) / KLEIN ZWITSERLANDPLEIN (TEGENOVER 16 - 18)  ", "open": "1", "number": "115", "longitude": "4.384971"}, {"bonus": "0", "name": "116 - ULB PLAINE", "address": "ULB PLAINE - BOULEVARD DE LA PLAINE  (ENTREE ULB) / PLEINLAAN (INGANG VUB)", "latitude": "50.818253", "fulladdress": "ULB PLAINE - BOULEVARD DE LA PLAINE  (ENTREE ULB) / PLEINLAAN (INGANG VUB)  ", "open": "1", "number": "116", "longitude": "4.395749"}, {"bonus": "1", "name": "117 - CIMETIERE D'IXELLES/BEGRAAFPLAATS ELSENE", "address": "CIMETIERE D'IXELLES / BEGRAAFPLAATS VAN ELSENE - AVENUE DE LA COURONNE/KROONLAAN 449", "latitude": "50.816029", "fulladdress": "CIMETIERE D'IXELLES / BEGRAAFPLAATS VAN ELSENE - AVENUE DE LA COURONNE/KROONLAAN 449  ", "open": "1", "number": "117", "longitude": "4.391006"}, {"bonus": "0", "name": "118 - SCHWEITZER", "address": "SCHWEITZER - PLACE DOCTEUR SCHWEITZER", "latitude": "50.864622", "fulladdress": "SCHWEITZER - PLACE DOCTEUR SCHWEITZER  ", "open": "1", "number": "118", "longitude": "4.297878"}, {"bonus": "0", "name": "119 - PAQUOT/PACQUOT", "address": "PAQUOT -  RUE JEAN PAQUOT (44 A 48) /JEAN PAQUOTSTRAAT (44 T.E.M 48)", "latitude": "50.82559", "fulladdress": "PAQUOT -  RUE JEAN PAQUOT (44 A 48) /JEAN PAQUOTSTRAAT (44 T.E.M 48)  ", "open": "1", "number": "119", "longitude": "4.379555"}, {"bonus": "1", "name": "120 - BLYCKAERTS/BLYCKAERTS", "address": "BLYCKAERTS - PLACE RAYMOND BLYCKAERTS/RAYMOND BLYCKAERTSPLEIN", "latitude": "50.832872", "fulladdress": "BLYCKAERTS - PLACE RAYMOND BLYCKAERTS/RAYMOND BLYCKAERTSPLEIN  ", "open": "1", "number": "120", "longitude": "4.37483"}, {"bonus": "0", "name": "121 - ETANGS / VIJVERS", "address": "ETANGS / VIJVERS - RUE GUILLAUME STOCQ (FACE AU N\u00b0 1-3-5)/ GUILLAUME STOCQSTRAAT (TEGENOVER N\u00b0 1-3-5)", "latitude": "50.823986", "fulladdress": "ETANGS / VIJVERS - RUE GUILLAUME STOCQ (FACE AU N\u00b0 1-3-5)/ GUILLAUME STOCQSTRAAT (TEGENOVER N\u00b0 1-3-5)  ", "open": "1", "number": "121", "longitude": "4.37379"}, {"bonus": "1", "name": "122 - GARE D'ETTERBEEK", "address": "GARE D'ETTERBEEK/STATION VAN ETTERBEEK - BOULEVARD GENERAL JACQUES/GENERAAL JACQUESLAAN", "latitude": "50.822207", "fulladdress": "GARE D'ETTERBEEK/STATION VAN ETTERBEEK - BOULEVARD GENERAL JACQUES/GENERAAL JACQUESLAAN  ", "open": "1", "number": "122", "longitude": "4.389325"}, {"bonus": "1", "name": "123 - BASCULE/BASCULE", "address": "BASCULE -  CHAUSSEE DE VLEURGAT (DEVANT 215 - 217) / VLEURGATSESTEENWEG  (N\u00b0 215 - 217)", "latitude": "50.817507", "fulladdress": "BASCULE -  CHAUSSEE DE VLEURGAT (DEVANT 215 - 217) / VLEURGATSESTEENWEG  (N\u00b0 215 - 217)  ", "open": "1", "number": "123", "longitude": "4.366498"}, {"bonus": "1", "name": "124 - CHARLES GRAUX", "address": "CHARLES GRAUX - CHAUSSEE DE WATERLOO (DEVANT N\u00b0 585 - 587)/ WATERLOOSESTEENWEG (N\u00b0 585 - 587)", "latitude": "50.818283", "fulladdress": "CHARLES GRAUX - CHAUSSEE DE WATERLOO (DEVANT N\u00b0 585 - 587)/ WATERLOOSESTEENWEG (N\u00b0 585 - 587)  ", "open": "1", "number": "124", "longitude": "4.363568"}, {"bonus": "0", "name": "125 - GEORGES BRUGMANN/GEORGES BRUGMANN", "address": "GEORGES BRUGMANN - PLACE GEORGES BRUGMANN/GEORGES BRUGMANNPLEIN N\u00b0 10 - 11", "latitude": "50.817392", "fulladdress": "GEORGES BRUGMANN - PLACE GEORGES BRUGMANN/GEORGES BRUGMANNPLEIN N\u00b0 10 - 11  ", "open": "1", "number": "125", "longitude": "4.354105"}, {"bonus": "0", "name": "127 - GRAY/GRAY", "address": "GRAY  -  RUE DES DEUX PONTS (FACE 4)/ TWEEBRUGGENSTRAAT (TEGENOVER 4)", "latitude": "50.832194", "fulladdress": "GRAY  -  RUE DES DEUX PONTS (FACE 4)/ TWEEBRUGGENSTRAAT (TEGENOVER 4)  ", "open": "1", "number": "127", "longitude": "4.377694"}, {"bonus": "0", "name": "133 - CHATEAU/KASTEEL", "address": "CHATEAU-KASTEEL - AVENUE DU CHATEAU/KASTEELLAAN", "latitude": "50.866795", "fulladdress": "CHATEAU-KASTEEL - AVENUE DU CHATEAU/KASTEELLAAN  ", "open": "1", "number": "133", "longitude": "4.3092224"}, {"bonus": "0", "name": "134 - PLACE DE BASTOGNE/BASTENAKEN", "address": "BASTOGNE/BASTENAKEN - PLACE DE BASTOGNE/BASTENAKENPLEIN", "latitude": "50.862652", "fulladdress": "BASTOGNE/BASTENAKEN - PLACE DE BASTOGNE/BASTENAKENPLEIN  ", "open": "1", "number": "134", "longitude": "4.316644"}, {"bonus": "0", "name": "135 - PARC LACROIX/LACROIX PARK", "address": "PARC LACROIX / LACROIX PARK - AV PRINCESSE ELISABETH/PRINSES ELISABETHLAAN", "latitude": "50.872744", "fulladdress": "PARC LACROIX / LACROIX PARK - AV PRINCESSE ELISABETH/PRINSES ELISABETHLAAN  ", "open": "1", "number": "135", "longitude": "4.376647"}, {"bonus": "0", "name": "136 - PAVILLON/PAVILJOEN", "address": "PAVILLON/PAVILJOEN - PLACE PAVILLON /PAVILJOENPLAATS 92-94-96", "latitude": "50.869809", "fulladdress": "PAVILLON/PAVILJOEN - PLACE PAVILLON /PAVILJOENPLAATS 92-94-96  ", "open": "1", "number": "136", "longitude": "4.371808"}, {"bonus": "0", "name": "137 - MAISON COMMUNALE DE SCHAERBEEK", "address": "MAISON COMMUNALE DE SCHAERBEEK/GEMEENTEHUIS VAN SCHAARBEEK - RUE ROYALE SAINTE MARIE/KONINKLIJKE SINTE-MARIASTRAAT 241-243-245", "latitude": "50.86661", "fulladdress": "MAISON COMMUNALE DE SCHAERBEEK/GEMEENTEHUIS VAN SCHAARBEEK - RUE ROYALE SAINTE MARIE/KONINKLIJKE SINTE-MARIASTRAAT 241-243-245  ", "open": "1", "number": "137", "longitude": "4.373102"}, {"bonus": "0", "name": "138 - HOUFFALIZE", "address": "HOUFFALIZE - PLACE DE HOUFFALIZE /HOUFFALIZEPLEIN 58", "latitude": "50.865218", "fulladdress": "HOUFFALIZE - PLACE DE HOUFFALIZE /HOUFFALIZEPLEIN 58  ", "open": "1", "number": "138", "longitude": "4.377735"}, {"bonus": "0", "name": "139 - LIEDTS", "address": "LIEDTS - PLACE LIEDTS (FACE AU 38)/ LIEDTSPLEIN (TEGENOVER 38)", "latitude": "50.863872", "fulladdress": "LIEDTS - PLACE LIEDTS (FACE AU 38)/ LIEDTSPLEIN (TEGENOVER 38)  ", "open": "1", "number": "139", "longitude": "4.366741"}, {"bonus": "0", "name": "140 - AZALEES/AZALEA", "address": "AZALEES / AZALEA -   AVENUE PAUL DESCHANEL/LAAN FACE/TEGENOVER N\u00b0  6-8", "latitude": "50.862704", "fulladdress": "AZALEES / AZALEA -   AVENUE PAUL DESCHANEL/LAAN FACE/TEGENOVER N\u00b0  6-8  ", "open": "1", "number": "140", "longitude": "4.381289"}, {"bonus": "0", "name": "141 - GARE DU NORD/NOORDSTATION", "address": "GARE DU NORD/NOORDSTATION - PLACE SIMON BOLIVAR/ SIMON BOLIVARLAAN", "latitude": "50.860652", "fulladdress": "GARE DU NORD/NOORDSTATION - PLACE SIMON BOLIVAR/ SIMON BOLIVARLAAN  ", "open": "1", "number": "141", "longitude": "4.358116"}, {"bonus": "0", "name": "142 - BIENFAITEURS/WELDOENERS", "address": "BIENFAITEURS/WELDOENERS - AVENUE ROGIER / ROGIERLAAN 269/271", "latitude": "50.857319", "fulladdress": "BIENFAITEURS/WELDOENERS - AVENUE ROGIER / ROGIERLAAN 269/271  ", "open": "1", "number": "142", "longitude": "4.386724"}, {"bonus": "0", "name": "143 - RTL/RTL", "address": "RTL  - CHAUSSEE DE LOUVAIN (DVT 770)/ LEUVENSE STEENWEG (N\u00b0 770)", "latitude": "50.857218", "fulladdress": "RTL  - CHAUSSEE DE LOUVAIN (DVT 770)/ LEUVENSE STEENWEG (N\u00b0 770)  ", "open": "1", "number": "143", "longitude": "4.407879"}, {"bonus": "0", "name": "144 - SAINTE-MARIE/SINTE-MARIA", "address": "SAINTE MARIE/SINTE-MARIA - RUE ROYALE/ KONINGSSTRAAT 257 - 259", "latitude": "50.85778", "fulladdress": "SAINTE MARIE/SINTE-MARIA - RUE ROYALE/ KONINGSSTRAAT 257 - 259  ", "open": "1", "number": "144", "longitude": "4.368144"}, {"bonus": "0", "name": "145 - COTEAUX/WIJNHEUVELEN", "address": "COTEAUX/WIJNHEUVELEN - AVENUE ROGIER / ROGIERLAAN 128", "latitude": "50.859096", "fulladdress": "COTEAUX/WIJNHEUVELEN - AVENUE ROGIER / ROGIERLAAN 128  ", "open": "1", "number": "145", "longitude": "4.379117"}, {"bonus": "0", "name": "146 - LEOPOLD III/LEOPOLD III", "address": "LEOPOLD III -  BOULEVARD LEOPOLD III / LEOPOLD III-LAAN", "latitude": "50.859243", "fulladdress": "LEOPOLD III -  BOULEVARD LEOPOLD III / LEOPOLD III-LAAN  ", "open": "1", "number": "146", "longitude": "4.401022"}, {"bonus": "0", "name": "147 - EMILE MAX LYCEE/LYCEUM EMILE MAX", "address": "EMILE MAX LYCEE/LYCEUM EMILE MAX - CHAUSSEE D'HAECHT/ HAACHTSESTEENWEG 226 - 230", "latitude": "50.861874", "fulladdress": "EMILE MAX LYCEE/LYCEUM EMILE MAX - CHAUSSEE D'HAECHT/ HAACHTSESTEENWEG 226 - 230  ", "open": "1", "number": "147", "longitude": "4.372146"}, {"bonus": "0", "name": "148 - GARE MEISER/MEISER STATION", "address": "GARE MEISER / MEISER STATION - AVENUE ROGIER/ ROGIERLAAN 377 - 379", "latitude": "50.855629", "fulladdress": "GARE MEISER / MEISER STATION - AVENUE ROGIER/ ROGIERLAAN 377 - 379  ", "open": "1", "number": "148", "longitude": "4.394807"}, {"bonus": "0", "name": "149 - JULES LEBRUN/JULES LEBRUN", "address": "JULES LEBRUN - CHAUSSEE DE LOUVAIN (FACE 593) / LEUVENSE STEENWEG (TEGENOVER 593)", "latitude": "50.856208", "fulladdress": "JULES LEBRUN - CHAUSSEE DE LOUVAIN (FACE 593) / LEUVENSE STEENWEG (TEGENOVER 593)  ", "open": "1", "number": "149", "longitude": "4.403386"}, {"bonus": "1", "name": "150 - MEISER/MEISER", "address": "MEISER - PLACE GENERAL MEISER (FACE 1 - 3) / GENERAAL MEISERPLEIN (TEGENOVER 1 - 3)", "latitude": "50.854654", "fulladdress": "MEISER - PLACE GENERAL MEISER (FACE 1 - 3) / GENERAAL MEISERPLEIN (TEGENOVER 1 - 3)  ", "open": "1", "number": "150", "longitude": "4.398451"}, {"bonus": "0", "name": "151 - LOUVAIN 488-494/LEUVEN 488-494", "address": "LOUVAIN / LEUVEN - CHAUSSEE DE LOUVAIN - LEUVENSESTEENWEG  488-494", "latitude": "50.853518", "fulladdress": "LOUVAIN / LEUVEN - CHAUSSEE DE LOUVAIN - LEUVENSESTEENWEG  488-494  ", "open": "1", "number": "151", "longitude": "4.392491"}, {"bonus": "1", "name": "152 - PLACE DAILLY/DAILLYPLEIN", "address": "PLACE DAILLY / DAILLYPLEIN - PLACE DAILLY / DAILLYPLEIN 24 - 25", "latitude": "50.852389", "fulladdress": "PLACE DAILLY / DAILLYPLEIN - PLACE DAILLY / DAILLYPLEIN 24 - 25  ", "open": "1", "number": "152", "longitude": "4.387373"}, {"bonus": "0", "name": "153 - SQUARE ARMAND STEURS/ARMAND STEURSSQUARE", "address": "SQUARE ARMAND STEURS/ARMAND STEURSSQUARE - AVENUE PAUL DESCHANEL (FACE N\u00b0 267 - 269) / PAUL DESCHANELLAAN (TEGENOVER 267 - 269)", "latitude": "50.854128", "fulladdress": "SQUARE ARMAND STEURS/ARMAND STEURSSQUARE - AVENUE PAUL DESCHANEL (FACE N\u00b0 267 - 269) / PAUL DESCHANELLAAN (TEGENOVER 267 - 269)  ", "open": "1", "number": "153", "longitude": "4.378002"}, {"bonus": "1", "name": "154 - PLASKY/PLASKY", "address": "PLASKY - SQUARE EUGENE PLASKY (FACE 100) / EUGENE PLASKYSQUARE (TEGENOVER 100)", "latitude": "50.851241", "fulladdress": "PLASKY - SQUARE EUGENE PLASKY (FACE 100) / EUGENE PLASKYSQUARE (TEGENOVER 100)  ", "open": "1", "number": "154", "longitude": "4.396386"}, {"bonus": "1", "name": "156 - JAMBLINE DE MEUX/JAMBLINNE DE MEUX", "address": "JAMBLINE DE MEUX - PLACE JAMBLINNE DE MEUX / JAMBLINNE DE MEUXPLEIN 43 - 44 - 45", "latitude": "50.847158", "fulladdress": "JAMBLINE DE MEUX - PLACE JAMBLINNE DE MEUX / JAMBLINNE DE MEUXPLEIN 43 - 44 - 45  ", "open": "1", "number": "156", "longitude": "4.393255"}, {"bonus": "0", "name": "157 - HELIOTROPES/HELIOTROPEN", "address": "HELIOTROPES/HELIOTROPEN - BOULEVARD LAMBERMONT /  LAMBERMONTLAAN 374", "latitude": "50.863388", "fulladdress": "HELIOTROPES/HELIOTROPEN - BOULEVARD LAMBERMONT /  LAMBERMONTLAAN 374  ", "open": "1", "number": "157", "longitude": "4.386222"}, {"bonus": "0", "name": "158 - VAN YSENDIJCK", "address": "VAN YSENDIJCK - AVENUE VOLTAIRE (FACE 6) / VOLTAIRELAAN (TEGENOVER 6)", "latitude": "50.867955", "fulladdress": "VAN YSENDIJCK - AVENUE VOLTAIRE (FACE 6) / VOLTAIRELAAN (TEGENOVER 6)  ", "open": "1", "number": "158", "longitude": "4.379577"}, {"bonus": "0", "name": "159 - MASUI", "address": "MASUI - AVENUE DE LA REINE / KONINGINNELAAN 153", "latitude": "50.869297", "fulladdress": "MASUI - AVENUE DE LA REINE / KONINGINNELAAN 153  ", "open": "1", "number": "159", "longitude": "4.36257"}, {"bonus": "0", "name": "160 - ELISA", "address": "ELISA - PLACE PRINCESSE ELISABETH / PRINSES ELISABETHPLEIN 8 - 19", "latitude": "50.877501", "fulladdress": "ELISA - PLACE PRINCESSE ELISABETH / PRINSES ELISABETHPLEIN 8 - 19  ", "open": "1", "number": "160", "longitude": "4.380315"}, {"bonus": "0", "name": "161 - DEMOLDER", "address": "DEMOLDER - AVENUE EUGENE DEMOLDER / EUGENE DEMOLDERLAAN 68", "latitude": "50.872592", "fulladdress": "DEMOLDER - AVENUE EUGENE DEMOLDER / EUGENE DEMOLDERLAAN 68  ", "open": "1", "number": "161", "longitude": "4.379886"}, {"bonus": "0", "name": "163 - CHAZAL/CHAZAL", "address": "CHAZAL - AVENUE ERNEST CAMBIER (FACE 7)/ ERNEST CAMBIERLAAN (TEGENOVER 7)", "latitude": "50.859112", "fulladdress": "CHAZAL - AVENUE ERNEST CAMBIER (FACE 7)/ ERNEST CAMBIERLAAN (TEGENOVER 7)  ", "open": "1", "number": "163", "longitude": "4.39157"}, {"bonus": "0", "name": "164 - KENNIS", "address": "KENNIS - BOULEVARD LAMBERMONT (20 M APRES 284)/LAMBERMONTLAAN   (20 M NA N\u00b0 284)", "latitude": "50.867643", "fulladdress": "KENNIS - BOULEVARD LAMBERMONT (20 M APRES 284)/LAMBERMONTLAAN   (20 M NA N\u00b0 284)  ", "open": "1", "number": "164", "longitude": "4.385817"}, {"bonus": "0", "name": "165 - CIMETIERE DE JETTE / KERKHOF JETTE", "address": "CIMETIERE DE JETTE / KERKHOF JETTE - BLD DE SMET DE NAEYER (FACE AU 322)/ DE SMET DE NAEYERSTRAAT (TEGENOVER 322)", "latitude": "50.879668", "fulladdress": "CIMETIERE DE JETTE / KERKHOF JETTE - BLD DE SMET DE NAEYER (FACE AU 322)/ DE SMET DE NAEYERSTRAAT (TEGENOVER 322)  ", "open": "1", "number": "165", "longitude": "4.33425"}, {"bonus": "0", "name": "166 - GC ESSEGEM", "address": "GC ESSEGEM - RUE AMELIE GOMAND 51- 45", "latitude": "50.876205", "fulladdress": "GC ESSEGEM - RUE AMELIE GOMAND 51- 45  ", "open": "1", "number": "166", "longitude": "4.337137"}, {"bonus": "0", "name": "167 - CHARLES V/KAREL V", "address": "CHARLES V/KAREL V - AVENUE CHARLES QUINT/KEIZER KARELLAAN 129-131", "latitude": "50.869032", "fulladdress": "CHARLES V/KAREL V - AVENUE CHARLES QUINT/KEIZER KARELLAAN 129-131  ", "open": "1", "number": "167", "longitude": "4.309731"}, {"bonus": "0", "name": "168 - HOPITAL FRANCAIS/FRANS HOSPITAAL", "address": "HOPITAL FRANCAIS/FRANS HOSPITAAL - AVENUE JOSSE GOFFIN/JOSSE GOFFINSTRAAT 133-135", "latitude": "50.866379", "fulladdress": "HOPITAL FRANCAIS/FRANS HOSPITAAL - AVENUE JOSSE GOFFIN/JOSSE GOFFINSTRAAT 133-135  ", "open": "1", "number": "168", "longitude": "4.303281"}, {"bonus": "0", "name": "169 - G.EECKHOUD/ G . EEKHOUD", "address": "EECKHOUD - AVENUE GEORGES EEKHOUD/GEORGES EEKHOUDLAAN 56", "latitude": "50.877125", "fulladdress": "EECKHOUD - AVENUE GEORGES EEKHOUD/GEORGES EEKHOUDLAAN 56  ", "open": "1", "number": "169", "longitude": "4.387515"}, {"bonus": "0", "name": "170 - RIGA", "address": "RIGA - SQUARE FRANCOIS RIGA / FRANCOIS RIGASQUARE", "latitude": "50.87453", "fulladdress": "RIGA - SQUARE FRANCOIS RIGA / FRANCOIS RIGASQUARE  ", "open": "1", "number": "170", "longitude": "4.385378"}, {"bonus": "0", "name": "171 - PISCINE LOUIS NAMECHE ZWEMBAD", "address": "PISCINE LOUIS NAMECHE ZWEMBAD - RUE CHARLES MALISSTRAAT / PARKING PISCINE / ZWEMBAD PARKING", "latitude": "50.854789", "fulladdress": "PISCINE LOUIS NAMECHE ZWEMBAD - RUE CHARLES MALISSTRAAT / PARKING PISCINE / ZWEMBAD PARKING  ", "open": "1", "number": "171", "longitude": "4.312201"}, {"bonus": "0", "name": "172 - AEROPOLIS", "address": "AEROPOLIS - CHAUSSEE D'HAECHT (FACE 586) / HAACHTSESTEENWEG (TEGENOVER 586)", "latitude": "50.869764", "fulladdress": "AEROPOLIS - CHAUSSEE D'HAECHT (FACE 586) / HAACHTSESTEENWEG (TEGENOVER 586)  ", "open": "1", "number": "172", "longitude": "4.388191"}, {"bonus": "0", "name": "173 - BICHON/BICHON", "address": "BICHON - PLACE BICHON / BICHONPLEIN", "latitude": "50.864656", "fulladdress": "BICHON - PLACE BICHON / BICHONPLEIN  ", "open": "1", "number": "173", "longitude": "4.394448"}, {"bonus": "0", "name": "174 - MENNEKENS/MENNEKENS", "address": "MENNEKENS - AVENUE BRIGADE PIRON (FACE AUX 80 - 82 - 84)/ BRIGADE PIRONLAAN (TEGENOVER 80 - 82 - 84)", "latitude": "50.853947", "fulladdress": "MENNEKENS - AVENUE BRIGADE PIRON (FACE AUX 80 - 82 - 84)/ BRIGADE PIRONLAAN (TEGENOVER 80 - 82 - 84)  ", "open": "1", "number": "174", "longitude": "4.31635"}, {"bonus": "0", "name": "175 - BEEKANT", "address": "BEEKANT - BOULEVARD EDMOND MACHTENS / EDMOND MACHTENSLAAN", "latitude": "50.854166", "fulladdress": "BEEKANT - BOULEVARD EDMOND MACHTENS / EDMOND MACHTENSLAAN  ", "open": "1", "number": "175", "longitude": "4.322948"}, {"bonus": "0", "name": "176 - COLONEL BOURG/KOLONEL BOURG", "address": "COLONEL BOURG/KOLONEL BOURG - RUE COLONEL BOURG/ KOLONEL BOURGSTRAAT 104", "latitude": "50.852356", "fulladdress": "COLONEL BOURG/KOLONEL BOURG - RUE COLONEL BOURG/ KOLONEL BOURGSTRAAT 104  ", "open": "1", "number": "176", "longitude": "4.408635"}, {"bonus": "1", "name": "177 - CHASSEURS ARDENNAIS/ARDENSE JAGERS", "address": "CHASSEURS ARDENNAIS/ARDENSE JAGERSPLEIN - RUE DU NOYER 81-87 /NOTELAARSSTRAAT 81-87", "latitude": "50.849409", "fulladdress": "CHASSEURS ARDENNAIS/ARDENSE JAGERSPLEIN - RUE DU NOYER 81-87 /NOTELAARSSTRAAT 81-87  ", "open": "1", "number": "177", "longitude": "4.389263"}, {"bonus": "0", "name": "178 - DIAMANT/DIAMANT", "address": "DIAMANT/DIAMANT - BOULEVARD AUGUSTE REYERS / AUGUSTE REYERSLAAN", "latitude": "50.849034", "fulladdress": "DIAMANT/DIAMANT - BOULEVARD AUGUSTE REYERS / AUGUSTE REYERSLAAN  ", "open": "1", "number": "178", "longitude": "4.402365"}, {"bonus": "1", "name": "179 - CELTES/KELTEN", "address": "CELTES/KELTEN - AVENUE DE TERVUEREN (FACE AU 17) / TERVURENLAAN (TEGENOVER 17)", "latitude": "50.839217", "fulladdress": "CELTES/KELTEN - AVENUE DE TERVUEREN (FACE AU 17) / TERVURENLAAN (TEGENOVER 17)  ", "open": "1", "number": "179", "longitude": "4.398015"}, {"bonus": "0", "name": "180 - JOURDAN/JOURDAN", "address": "JOURDAN/JOURDAN - RUE FROISSART (FACE 3 - 5) / FROISSARTSTRAAT (TEGENOVER 3 - 5)", "latitude": "50.837726", "fulladdress": "JOURDAN/JOURDAN - RUE FROISSART (FACE 3 - 5) / FROISSARTSTRAAT (TEGENOVER 3 - 5)  ", "open": "1", "number": "180", "longitude": "4.381565"}, {"bonus": "0", "name": "181 - LOUIS TITZ/LOUIS TITZ", "address": "LOUIS / TITZ - AVENUE DE LA CHASSE/ JACHTLAAN 182 - 184", "latitude": "50.835723", "fulladdress": "LOUIS / TITZ - AVENUE DE LA CHASSE/ JACHTLAAN 182 - 184  ", "open": "1", "number": "181", "longitude": "4.394395"}, {"bonus": "0", "name": "182 - BOILEAU/BOILEAU", "address": "BOILEAU/BOILEAU - BOULEVARD SAINT MICHEL / SINT-MICHIELSLAAN", "latitude": "50.83168", "fulladdress": "BOILEAU/BOILEAU - BOULEVARD SAINT MICHEL / SINT-MICHIELSLAAN  ", "open": "1", "number": "182", "longitude": "4.404769"}, {"bonus": "0", "name": "183 - LA CHASSE/JACHT", "address": "LA CHASSE/JACHT - AVENUE DES CASERNES/ KAZERNENLAAN 4 - 6", "latitude": "50.829928", "fulladdress": "LA CHASSE/JACHT - AVENUE DES CASERNES/ KAZERNENLAAN 4 - 6  ", "open": "1", "number": "183", "longitude": "4.390357"}, {"bonus": "0", "name": "184 - PHILIPPE BAUCQ/PHILIPPE BAUCQ", "address": "PHILIPPE BAUCQ - RUE PHILIPPE BAUCQ / PHILIPPE BAUCQSTRAAT 32 - 38", "latitude": "50.831592", "fulladdress": "PHILIPPE BAUCQ - RUE PHILIPPE BAUCQ / PHILIPPE BAUCQSTRAAT 32 - 38  ", "open": "1", "number": "184", "longitude": "4.385786"}, {"bonus": "0", "name": "185 - PERE DE DEKEN/PATER DE DEKEN", "address": "PERE DE DEKEN/PATER DE DEKEN - RUE PERE DE DEKEN/ PATER DE DEKENSTRAAT 40", "latitude": "50.835797", "fulladdress": "PERE DE DEKEN/PATER DE DEKEN - RUE PERE DE DEKEN/ PATER DE DEKENSTRAAT 40  ", "open": "1", "number": "185", "longitude": "4.401599"}, {"bonus": "0", "name": "186 - GENOT", "address": "GENOT - CHAUSSEE DE GAND DEVANT 1033", "latitude": "50.861783", "fulladdress": "GENOT - CHAUSSEE DE GAND DEVANT 1033  ", "open": "1", "number": "186", "longitude": "4.302607"}, {"bonus": "0", "name": "187 - ARSENAL/ARSENAAL", "address": "ARSENAL/ARSENAAL - BOULEVARD LOUIS SCHMIDT/ LOUIS SCHMIDTLAAN 2", "latitude": "50.826603", "fulladdress": "ARSENAL/ARSENAAL - BOULEVARD LOUIS SCHMIDT/ LOUIS SCHMIDTLAAN 2  ", "open": "1", "number": "187", "longitude": "4.397117"}, {"bonus": "0", "name": "188 - OSSEGHEM", "address": "OSSEGHEM -  AVENUE MAHATMA GANDHI/ MAHATMA GANDHILAAN 10", "latitude": "50.857235", "fulladdress": "OSSEGHEM -  AVENUE MAHATMA GANDHI/ MAHATMA GANDHILAAN 10  ", "open": "1", "number": "188", "longitude": "4.324354"}, {"bonus": "0", "name": "189 - PLACE VAN MEYEL/VAN MEYELPLEIN", "address": "PLACE VAN MEYEL/VAN MEYELPLEIN", "latitude": "50.836924", "fulladdress": "PLACE VAN MEYEL/VAN MEYELPLEIN  ", "open": "1", "number": "189", "longitude": "4.389073"}, {"bonus": "0", "name": "190 - TERDELT/TERDELT", "address": "TERDELT/TERDELT  - PLACE TERDELT / TERDELTPLEIN", "latitude": "50.867904", "fulladdress": "TERDELT/TERDELT  - PLACE TERDELT / TERDELTPLEIN  ", "open": "1", "number": "190", "longitude": "4.390696"}, {"bonus": "0", "name": "025 - PORTE D'ANDERLECHT / ANDERLECHTSEPOORT", "address": "PORTE D'ANDERLECHT/ANDERLECHTSEPOORT - BLD POINCARE/ POINCARELAAN 27/28/29", "latitude": "50.844453", "fulladdress": "PORTE D'ANDERLECHT/ANDERLECHTSEPOORT - BLD POINCARE/ POINCARELAAN 27/28/29  ", "open": "1", "number": "25", "longitude": "4.338591"}, {"bonus": "0", "name": "026 - VAN LINT", "address": "VAN LINT - RUE VAN LINT/ VAN LINTSTRAAT 6 - 8", "latitude": "50.839413", "fulladdress": "VAN LINT - RUE VAN LINT/ VAN LINTSTRAAT 6 - 8  ", "open": "1", "number": "26", "longitude": "4.328914"}, {"bonus": "0", "name": "027 - SQUARE ALBERT I / ALBERT I SQUARE", "address": "SQUARE ALBERT I / ALBERT I-SQUARE 25 - 26 - 27", "latitude": "50.838733", "fulladdress": "SQUARE ALBERT I / ALBERT I-SQUARE 25 - 26 - 27  ", "open": "1", "number": "27", "longitude": "4.32176"}, {"bonus": "0", "name": "028 - CLEMENCEAU / CLEMENCEAU", "address": "CLEMENCEAU - CHEE DE MONS/ BERGENSE STEENWEG 159-161-163", "latitude": "50.842005", "fulladdress": "CLEMENCEAU - CHEE DE MONS/ BERGENSE STEENWEG 159-161-163  ", "open": "1", "number": "28", "longitude": "4.3305"}, {"bonus": "0", "name": "029 - BAUDOUIN / BOUDEWIJN", "address": "BAUDOUIN/BOUDEWIJN - RUE DE LAEKEN / LAKENSESTRAAT", "latitude": "50.856584", "fulladdress": "BAUDOUIN/BOUDEWIJN - RUE DE LAEKEN / LAKENSESTRAAT  ", "open": "1", "number": "29", "longitude": "4.352877"}, {"bonus": "0", "name": "030 - LAEKEN / LAKEN", "address": "LAEKEN/LAKEN - RUE DE LAEKEN (ENTRE N\u00b0 119 ET 109) / LAKENSESTRAAT (TUSSEN N\u00b0 119 EN 109)", "latitude": "50.853666", "fulladdress": "LAEKEN/LAKEN - RUE DE LAEKEN (ENTRE N\u00b0 119 ET 109) / LAKENSESTRAAT (TUSSEN N\u00b0 119 EN 109)  ", "open": "1", "number": "30", "longitude": "4.351771"}, {"bonus": "0", "name": "003 - PORTE DE FLANDRES / VLAAMSEPOORT", "address": "PORTE DE FLANDRES/VLAAMSEPOORT - BLD DE NIEUPORT/NIEUWPOORTLAAN 1", "latitude": "50.853203", "fulladdress": "PORTE DE FLANDRES/VLAAMSEPOORT - BLD DE NIEUPORT/NIEUWPOORTLAAN 1  ", "open": "1", "number": "3", "longitude": "4.341823"}, {"bonus": "0", "name": "031 - MUSEE DE LA BD / STRIPMUSEUM", "address": "MUSEE DE LA BD/STRIPMUSEUM - BOULEVARD PACHECO/PACHECOLAAN", "latitude": "50.850303", "fulladdress": "MUSEE DE LA BD/STRIPMUSEUM - BOULEVARD PACHECO/PACHECOLAAN  ", "open": "1", "number": "31", "longitude": "4.360706"}, {"bonus": "0", "name": "032 - DANSAERT", "address": "DANSAERT - RUE ANTOINE DANSAERT/ANTOINE DANSAERTSTRAAT 60-62-64", "latitude": "50.850176", "fulladdress": "DANSAERT - RUE ANTOINE DANSAERT/ANTOINE DANSAERTSTRAAT 60-62-64  ", "open": "1", "number": "32", "longitude": "4.346384"}, {"bonus": "0", "name": "033 - MORT SUBITE", "address": "MORT SUBITE - RUE MONTAGNE AUX-HERBES-POTAGERES (FACE N\u00b0 7)/WARMOESBERG (TEGENOVER N\u00b07)", "latitude": "50.848701", "fulladdress": "MORT SUBITE - RUE MONTAGNE AUX-HERBES-POTAGERES (FACE N\u00b0 7)/WARMOESBERG (TEGENOVER N\u00b07)  ", "open": "1", "number": "33", "longitude": "4.356055"}, {"bonus": "0", "name": "004 - JARDIN AUX FLEURS / BLOEMENHOF", "address": "JARDIN AUX FLEURS/BLOEMENHOF - PLACE DU JARDIN AUX FLEURS/BLOEMENHOFPLEIN - RUE DES 6 JETONS/ZES PENNIGENSTRAAT 71", "latitude": "50.847976", "fulladdress": "JARDIN AUX FLEURS/BLOEMENHOF - PLACE DU JARDIN AUX FLEURS/BLOEMENHOFPLEIN - RUE DES 6 JETONS/ZES PENNIGENSTRAAT 71  ", "open": "1", "number": "4", "longitude": "4.343696"}, {"bonus": "0", "name": "005 - BOURSE / BEURS", "address": "BOURSE/BEURS - RUE PAUL DEVAUX/PAUL DEVAUXSTRAAT", "latitude": "50.848893", "fulladdress": "BOURSE/BEURS - RUE PAUL DEVAUX/PAUL DEVAUXSTRAAT  ", "open": "1", "number": "5", "longitude": "4.349396"}, {"bonus": "1", "name": "007 - PARC / PARK", "address": "PARC/PARK - RUE ROYALE  (FACE N\u00b066-68)/KONINGSSTRAAT (TEGENOVER N\u00b066-68)", "latitude": "50.846319", "fulladdress": "PARC/PARK - RUE ROYALE  (FACE N\u00b066-68)/KONINGSSTRAAT (TEGENOVER N\u00b066-68)  ", "open": "1", "number": "7", "longitude": "4.362244"}, {"bonus": "0", "name": "034 - FONTAINAS / FONTAINAS", "address": "FONTAINAS - BLD ANSPACH N\u00b0180 A 192/ANSPACHLAAN N\u00b0180 TOT 192", "latitude": "50.84563", "fulladdress": "FONTAINAS - BLD ANSPACH N\u00b0180 A 192/ANSPACHLAAN N\u00b0180 TOT 192  ", "open": "1", "number": "34", "longitude": "4.346942"}, {"bonus": "0", "name": "035 - CANTERSTEEN / KANTERSTEEN", "address": "CANTERSTEEN/KANTERSTEEN - RUE CANTERSTEEN/KANTERSTEENSTRAAT 41-43-45", "latitude": "50.845814", "fulladdress": "CANTERSTEEN/KANTERSTEEN - RUE CANTERSTEEN/KANTERSTEENSTRAAT 41-43-45  ", "open": "1", "number": "35", "longitude": "4.358013"}, {"bonus": "0", "name": "008 - ARTS-LOI / KUNST-WET", "address": "ARTS-LOI/KUNST-WET -  AVENUE DES ARTS/KUNSTLAAN 24", "latitude": "50.845683", "fulladdress": "ARTS-LOI/KUNST-WET -  AVENUE DES ARTS/KUNSTLAAN 24  ", "open": "1", "number": "8", "longitude": "4.368582"}, {"bonus": "0", "name": "036 - PLACE ST JEAN / SINT-JANSPLEIN", "address": "PLACE ST JEAN/SINT-JANSPLEIN - RUE DU LOMBARD/LOMBARDSTRAAT 42", "latitude": "50.845124", "fulladdress": "PLACE ST JEAN/SINT-JANSPLEIN - RUE DU LOMBARD/LOMBARDSTRAAT 42  ", "open": "1", "number": "36", "longitude": "4.351486"}, {"bonus": "0", "name": "009 - ANNEESENS / ANNEESSENS", "address": "ANNEESENS - BLD MAURICE LEMONNIER/MAURICE LEMONNIERLAAN 42-44-46", "latitude": "50.844045", "fulladdress": "ANNEESENS - BLD MAURICE LEMONNIER/MAURICE LEMONNIERLAAN 42-44-46  ", "open": "1", "number": "9", "longitude": "4.345048"}, {"bonus": "0", "name": "010 - CHAPELLE / KAPEL", "address": "CHAPELLE/KAPEL - PLACE DE LA CHAPELLE/KAPELLEPLEIN", "latitude": "50.841345", "fulladdress": "CHAPELLE/KAPEL - PLACE DE LA CHAPELLE/KAPELLEPLEIN  ", "open": "1", "number": "10", "longitude": "4.351729"}, {"bonus": "0", "name": "011 - SABLON / ZAVEL", "address": "SABLON/ZAVEL - RUE DE LA REGENCE/REGENTSCHAPSSTRAAT 20", "latitude": "50.8405", "fulladdress": "SABLON/ZAVEL - RUE DE LA REGENCE/REGENTSCHAPSSTRAAT 20  ", "open": "1", "number": "11", "longitude": "4.356878"}, {"bonus": "0", "name": "012 - TRONE / TROON", "address": "TRONE/TROON - AV. DES ARTS/KUNSTLAAN, 58", "latitude": "50.840521", "fulladdress": "TRONE/TROON - AV. DES ARTS/KUNSTLAAN, 58  ", "open": "1", "number": "12", "longitude": "4.36639"}, {"bonus": "0", "name": "013 - LEMONNIER", "address": "LEMONNIER - BLD. MAURICE LEMONNIER/DE MAURICE LEMONNIERLAAN 202-204-206", "latitude": "50.840184", "fulladdress": "LEMONNIER - BLD. MAURICE LEMONNIER/DE MAURICE LEMONNIERLAAN 202-204-206  ", "open": "1", "number": "13", "longitude": "4.341324"}, {"bonus": "1", "name": "014 - PORTE DE NAMUR / NAAMSEPOORT", "address": "PORTE DE NAMUR/NAAMSEPOORT - BLD DU REGENT /REGENTLAAN 1", "latitude": "50.839024", "fulladdress": "PORTE DE NAMUR/NAAMSEPOORT - BLD DU REGENT /REGENTLAAN 1  ", "open": "1", "number": "14", "longitude": "4.362168"}, {"bonus": "1", "name": "037 - POELAERT / POELAERT", "address": "POELAERT - PLACE POELAERT/POELAERTPLEIN 3", "latitude": "50.83795", "fulladdress": "POELAERT - PLACE POELAERT/POELAERTPLEIN 3  ", "open": "1", "number": "37", "longitude": "4.353019"}, {"bonus": "0", "name": "038 - JEU DE BALLE / VOSSENPLEIN", "address": "JEU DE BALLE/VOSSENPLEIN - RUE BLAES/BLAESSTRAAT 135-141", "latitude": "50.837912", "fulladdress": "JEU DE BALLE/VOSSENPLEIN - RUE BLAES/BLAESSTRAAT 135-141  ", "open": "1", "number": "38", "longitude": "4.347421"}, {"bonus": "1", "name": "016 - LOUISE / LOUIZA", "address": "LOUISE/LOUIZA - PLACE LOUISE/LOUIZAPLEIN 53", "latitude": "50.835968", "fulladdress": "LOUISE/LOUIZA - PLACE LOUISE/LOUIZAPLEIN 53  ", "open": "1", "number": "16", "longitude": "4.355508"}, {"bonus": "0", "name": "039 - HOTEL DES MONNAIES / MUNTHOTEL", "address": "HOTEL DES MONNAIES/MUNTHOTEL - BLD DE WATERLOO- WATERLOOLAAN 93/94/95/96/98", "latitude": "50.834237", "fulladdress": "HOTEL DES MONNAIES/MUNTHOTEL - BLD DE WATERLOO- WATERLOOLAAN 93/94/95/96/98  ", "open": "1", "number": "39", "longitude": "4.350732"}, {"bonus": "0", "name": "040 - PORTE DE HAL / HALLEPOORT", "address": "PORTE DE HAL/HALLEPOORT - BOULEVARD DU MIDI/ZUIDLAAN 142", "latitude": "50.833931", "fulladdress": "PORTE DE HAL/HALLEPOORT - BOULEVARD DU MIDI/ZUIDLAAN 142  ", "open": "1", "number": "40", "longitude": "4.343155"}, {"bonus": "0", "name": "042 - PORTE DE NINOVE /NINOOFSEPOORT", "address": "PORTE DE NINOVE/NINOOFSEPOORT - PLACE DE NINOVE/NINOOFSEPLEIN/SUR BLD DE L'ABATTOIR/OP SLACHTHUISLAAN", "latitude": "50.84917", "fulladdress": "PORTE DE NINOVE/NINOOFSEPOORT - PLACE DE NINOVE/NINOOFSEPLEIN/SUR BLD DE L'ABATTOIR/OP SLACHTHUISLAAN  ", "open": "1", "number": "42", "longitude": "4.338383"}, {"bonus": "0", "name": "018 - GUTENBERG / GUTENBERG", "address": "GUTENBERG - SQUARE GUTENBERG (FACE N\u00b0 5)/GUTENBERGSSQUARE (TEGENOVER N\u00b0 5)", "latitude": "50.84771", "fulladdress": "GUTENBERG - SQUARE GUTENBERG (FACE N\u00b0 5)/GUTENBERGSSQUARE (TEGENOVER N\u00b0 5)  ", "open": "1", "number": "18", "longitude": "4.377552"}, {"bonus": "0", "name": "056 - ARCHIMEDE / ARCHIMEDES", "address": "ARCHIMEDE/ARCHIMEDES - RUE ARCHIMEDE/ARCHIMEDESSTRAAT 58-64", "latitude": "50.845817", "fulladdress": "ARCHIMEDE/ARCHIMEDES - RUE ARCHIMEDE/ARCHIMEDESSTRAAT 58-64  ", "open": "1", "number": "56", "longitude": "4.383722"}, {"bonus": "0", "name": "079 - LOI / WET", "address": "LOI/WET - RUE D'ARLON/STRAAT", "latitude": "50.84413", "fulladdress": "LOI/WET - RUE D'ARLON/STRAAT  ", "open": "1", "number": "79", "longitude": "4.374871"}, {"bonus": "0", "name": "043 - JOSEPH II / JOZEF II", "address": "JOSEPH II/JOZEF II - RUE JOSEPH II/JOZEF II-STRAAT", "latitude": "50.845256", "fulladdress": "JOSEPH II/JOZEF II - RUE JOSEPH II/JOZEF II-STRAAT  ", "open": "1", "number": "43", "longitude": "4.374501"}, {"bonus": "0", "name": "061 - MAELBEEK / MAALBEEK", "address": "MAELBEEK/MAALBEEK - CHAUSSEE D'ETTERBEEK/ETTERBEEKSESTEENWEG 15", "latitude": "50.843836", "fulladdress": "MAELBEEK/MAALBEEK - CHAUSSEE D'ETTERBEEK/ETTERBEEKSESTEENWEG 15  ", "open": "1", "number": "61", "longitude": "4.378002"}, {"bonus": "0", "name": "044 - CHARLEMAGNE / KAREL DE GROTE", "address": "CHARLEMAGNE/KAREL DE GROTE - RUE DE LA SCIENCE/WETENSCHAPSSTRAAT 11", "latitude": "50.841707", "fulladdress": "CHARLEMAGNE/KAREL DE GROTE - RUE DE LA SCIENCE/WETENSCHAPSSTRAAT 11  ", "open": "1", "number": "44", "longitude": "4.370986"}, {"bonus": "0", "name": "062 - CORTENBERGH / KORTENBERG", "address": "CORTENBERGH/KORTENBERG - AVENUE DE CORTENBERGH/KORTENBERGLAAN", "latitude": "50.842642", "fulladdress": "CORTENBERGH/KORTENBERG - AVENUE DE CORTENBERGH/KORTENBERGLAAN  ", "open": "1", "number": "62", "longitude": "4.384588"}, {"bonus": "0", "name": "066 - SCHUMAN / SCHUMAN", "address": "SCHUMAN - RUE DE LA LOI/WETSTRAAT 170", "latitude": "50.843359", "fulladdress": "SCHUMAN - RUE DE LA LOI/WETSTRAAT 170  ", "open": "1", "number": "66", "longitude": "4.379946"}, {"bonus": "0", "name": "045 - STEPHANIE / STEFANIA", "address": "STEPHANIE/STEFANIA - AV LOUISE/LOUIZALAAN 61A-63-65", "latitude": "50.83308", "fulladdress": "STEPHANIE/STEFANIA - AV LOUISE/LOUIZALAAN 61A-63-65  ", "open": "1", "number": "45", "longitude": "4.35743"}, {"bonus": "0", "name": "020 - PALAIS ROYAL / KONINKLIJK PALEIS", "address": "PALAIS ROYAL/KONINGSSTRAAT PALEIS - RUE ROYALE (DEVANT N\u00b014)/KONINKLIJKESTRAAT (N\u00b014)", "latitude": "50.843613", "fulladdress": "PALAIS ROYAL/KONINGSSTRAAT PALEIS - RUE ROYALE (DEVANT N\u00b014)/KONINKLIJKESTRAAT (N\u00b014)  ", "open": "1", "number": "20", "longitude": "4.360628"}, {"bonus": "0", "name": "046 - ALBERTINE / ALBERTINA", "address": "ALBERTINE/ALBERTINA - BLD DE L'EMPEREUR/KEIZERSLAAN 2", "latitude": "50.843556", "fulladdress": "ALBERTINE/ALBERTINA - BLD DE L'EMPEREUR/KEIZERSLAAN 2  ", "open": "1", "number": "46", "longitude": "4.355006"}, {"bonus": "0", "name": "047 - LES QUAIS / KAAIEN", "address": "LES QUAIS/KAAIEN - QUAI A LA CHAUX/KALKKAAI 1-2", "latitude": "50.854714", "fulladdress": "LES QUAIS/KAAIEN - QUAI A LA CHAUX/KALKKAAI 1-2  ", "open": "1", "number": "47", "longitude": "4.347151"}, {"bonus": "1", "name": "048 - CONGRES / CONGRES", "address": "CONGRES - RUE ROYALE/KONINGSSTRAAT 144-146-148", "latitude": "50.849358", "fulladdress": "CONGRES - RUE ROYALE/KONINGSSTRAAT 144-146-148  ", "open": "1", "number": "48", "longitude": "4.363589"}, {"bonus": "0", "name": "023 - AGORA / AGORA", "address": "AGORA - PLACE AGORA/AGORAPLEIN 120", "latitude": "50.846331", "fulladdress": "AGORA - PLACE AGORA/AGORAPLEIN 120  ", "open": "1", "number": "23", "longitude": "4.355193"}, {"bonus": "0", "name": "021 - DE BROUCKERE", "address": "DE BROUCKERE - PLACE DE BROUCKERE/DE BROUCKEREPLEIN", "latitude": "50.851919", "fulladdress": "DE BROUCKERE - PLACE DE BROUCKERE/DE BROUCKEREPLEIN  ", "open": "1", "number": "21", "longitude": "4.352776"}, {"bonus": "0", "name": "093 - CLOVIS / CLOVIS", "address": "CLOVIS/CLOVIS - CHAUSSEE DE LOUVAIN - LEUVENSESTEENWEG 260-264", "latitude": "50.85062", "fulladdress": "CLOVIS/CLOVIS - CHAUSSEE DE LOUVAIN - LEUVENSESTEENWEG 260-264  ", "open": "1", "number": "93", "longitude": "4.381152"}, {"bonus": "0", "name": "053 - GARE DU MIDI / ZUIDSTATION", "address": "GARE DU MIDI / ZUIDSTATION - PLACE VICTOR HORTA / VICTOR HORTAPLEIN", "latitude": "50.837499", "fulladdress": "GARE DU MIDI / ZUIDSTATION - PLACE VICTOR HORTA / VICTOR HORTAPLEIN  ", "open": "1", "number": "53", "longitude": "4.335947"}, {"bonus": "0", "name": "064 - VETERINAIRES / VEEARTSEN", "address": "VETERINAIRES/VEEARTSEN - RUE DE FRANCE / FRANKRIJKSTRAAT", "latitude": "50.832749", "fulladdress": "VETERINAIRES/VEEARTSEN - RUE DE FRANCE / FRANKRIJKSTRAAT  ", "open": "1", "number": "64", "longitude": "4.331058"}, {"bonus": "0", "name": "058 - GARE DU NORD / NOORDSTATION", "address": "GARE DU NORD/NOORDSTATION - PLACE DU NORD / NOORDPLAATS", "latitude": "50.859181", "fulladdress": "GARE DU NORD/NOORDSTATION - PLACE DU NORD / NOORDPLAATS  ", "open": "1", "number": "58", "longitude": "4.35942"}, {"bonus": "0", "name": "080 - CERES/CERES", "address": "CERES - AV. F. ROOSEVELT/F. ROOSEVELTLAAN, 14", "latitude": "50.814852", "fulladdress": "CERES - AV. F. ROOSEVELT/F. ROOSEVELTLAAN, 14  ", "open": "1", "number": "80", "longitude": "4.376794"}, {"bonus": "1", "name": "072 - ULB SOLBOSCH / VUB  SOLBOSCH", "address": "ULB SOLBOSCH / VUB SOLBOSCH - AV. F.ROOSEVELT/F.ROOSEVELTLAAN 19", "latitude": "50.812489", "fulladdress": "ULB SOLBOSCH / VUB SOLBOSCH - AV. F.ROOSEVELT/F.ROOSEVELTLAAN 19  ", "open": "1", "number": "72", "longitude": "4.379203"}, {"bonus": "1", "name": "071 - LEGRAND/LEGRAND", "address": "LEGRAND - AV LOUISE/LOUIZALAAN 525", "latitude": "50.815019", "fulladdress": "LEGRAND - AV LOUISE/LOUIZALAAN 525  ", "open": "1", "number": "71", "longitude": "4.371982"}, {"bonus": "0", "name": "068 - JEAN REY/JEAN REY", "address": "JEAN REY - PLACE JEAN REY/JEAN REYPLAATS", "latitude": "50.840282", "fulladdress": "JEAN REY - PLACE JEAN REY/JEAN REYPLAATS  ", "open": "1", "number": "68", "longitude": "4.380131"}, {"bonus": "0", "name": "049 - WILLEBROEK", "address": "WILLEBROECK/WILLEBROEK - QUAI DE WILLEBROECK/WILLEBROEKKAAI 22 BIS", "latitude": "50.8615", "fulladdress": "WILLEBROECK/WILLEBROEK - QUAI DE WILLEBROECK/WILLEBROEKKAAI 22 BIS  ", "open": "1", "number": "49", "longitude": "4.351143"}, {"bonus": "0", "name": "041 - SAINT-ROCH/SINT-ROCHUS", "address": "SAINT ROCH/SINT-ROCHUS - CHAUSSEE D'ANVERS/ANTWERPSELAAN 37", "latitude": "50.859302", "fulladdress": "SAINT ROCH/SINT-ROCHUS - CHAUSSEE D'ANVERS/ANTWERPSELAAN 37  ", "open": "1", "number": "41", "longitude": "4.35485"}, {"bonus": "0", "name": "075 - GENERAL BARON/GENERAAL BARON", "address": "GENERAL BARON/GENERAAL BARON - AV DU PARC / PARKLAAN 51 - 55", "latitude": "50.825888", "fulladdress": "GENERAL BARON/GENERAAL BARON - AV DU PARC / PARKLAAN 51 - 55  ", "open": "1", "number": "75", "longitude": "4.340388"}, {"bonus": "0", "name": "078 - DUC PETIAUX/DUC PETIAUX", "address": "DUC PETIAUX - CHAUSSEE DE WATERLOO/ WATERLOOSESTEENWEG 376 - 370", "latitude": "50.823699", "fulladdress": "DUC PETIAUX - CHAUSSEE DE WATERLOO/ WATERLOOSESTEENWEG 376 - 370  ", "open": "1", "number": "78", "longitude": "4.351623"}, {"bonus": "1", "name": "077 - PAUL JANSON/PAUL JANSON", "address": "PAUL JANSON - CHAUSSEE DE CHARLEROI/ CHARLEROISESTEENWEG 159", "latitude": "50.827399", "fulladdress": "PAUL JANSON - CHAUSSEE DE CHARLEROI/ CHARLEROISESTEENWEG 159  ", "open": "1", "number": "77", "longitude": "4.355281"}, {"bonus": "1", "name": "070 - AURORE/DAGERAAD", "address": "AURORE/DAGERAAD - AVENUE LOUISE/LOUIZALAAN 440", "latitude": "50.818113", "fulladdress": "AURORE/DAGERAAD - AVENUE LOUISE/LOUIZALAAN 440  ", "open": "1", "number": "70", "longitude": "4.371446"}, {"bonus": "1", "name": "069 - LESBROUSSART/LESBROUSSART", "address": "LESBROUSSART - AVENUE LOUISE/LOUIZALAAN 192", "latitude": "50.827577", "fulladdress": "LESBROUSSART - AVENUE LOUISE/LOUIZALAAN 192  ", "open": "1", "number": "69", "longitude": "4.363797"}, {"bonus": "1", "name": "073 - VLEURGAT/VLEURGAT", "address": "VLEURGAT - AVENUE LOUISE/LOUIZALAAN 300", "latitude": "50.823898", "fulladdress": "VLEURGAT - AVENUE LOUISE/LOUIZALAAN 300  ", "open": "1", "number": "73", "longitude": "4.367752"}, {"bonus": "0", "name": "067 - PARC CINQUANTENAIRE / JUBELPARK", "address": "PARC CINQUANTENAIRE/JUBELPARK - AVENUE D'AUDERGHEM/OUDERGEMSESTEENWEG 45", "latitude": "50.83975", "fulladdress": "PARC CINQUANTENAIRE/JUBELPARK - AVENUE D'AUDERGHEM/OUDERGEMSESTEENWEG 45  ", "open": "1", "number": "67", "longitude": "4.385426"}, {"bonus": "0", "name": "002 - ELOY/ELOY", "address": "ELOY - RUE ELOY / ELOYSTRAAT", "latitude": "50.836151", "fulladdress": "ELOY - RUE ELOY / ELOYSTRAAT  ", "open": "1", "number": "2", "longitude": "4.326019"}, {"bonus": "0", "name": "087 - MIROIR/SPIEGEL", "address": "MIROIR/SPIEGEL - AVENUE DE LAEKEN (FACE 36) / LAKENSE LAAN (TEGENOVER 36)", "latitude": "50.871391", "fulladdress": "MIROIR/SPIEGEL - AVENUE DE LAEKEN (FACE 36) / LAKENSE LAAN (TEGENOVER 36)  ", "open": "1", "number": "87", "longitude": "4.323914"}, {"bonus": "0", "name": "088 - WOESTE", "address": "WOESTE - AVENUE NOTRE DAME DE LOURDES / ONZE-LIEVE-VROUW VAN LOURDESLAAN", "latitude": "50.873354", "fulladdress": "WOESTE - AVENUE NOTRE DAME DE LOURDES / ONZE-LIEVE-VROUW VAN LOURDESLAAN  ", "open": "1", "number": "88", "longitude": "4.334311"}, {"bonus": "0", "name": "090 - BROUSTIN", "address": "BROUSTIN - AV DE JETTE/ JETSELAAN 73 - 81", "latitude": "50.867448", "fulladdress": "BROUSTIN - AV DE JETTE/ JETSELAAN 73 - 81  ", "open": "1", "number": "90", "longitude": "4.326807"}, {"bonus": "0", "name": "091 - BELGICA", "address": "BELGICA - PLACE WERRIE/ WERRIEPLEIN 24", "latitude": "50.867773", "fulladdress": "BELGICA - PLACE WERRIE/ WERRIEPLEIN 24  ", "open": "1", "number": "91", "longitude": "4.335217"}, {"bonus": "0", "name": "092 - LENOIR", "address": "LENOIR - BLD DE SMET DE NAEYER/DE SMET DE NAEYERLAAN 187 - 189", "latitude": "50.875826", "fulladdress": "LENOIR - BLD DE SMET DE NAEYER/DE SMET DE NAEYERLAAN 187 - 189  ", "open": "1", "number": "92", "longitude": "4.329921"}, {"bonus": "0", "name": "082 - PANNENHUIS", "address": "PANNENHUIS - RUE CHARLES DEMEER/CHARLES DEMEERSTRAAT  71", "latitude": "50.873012", "fulladdress": "PANNENHUIS - RUE CHARLES DEMEER/CHARLES DEMEERSTRAAT  71  ", "open": "1", "number": "82", "longitude": "4.341687"}, {"bonus": "1", "name": "057 - MADOU/MADOU", "address": "MADOU - RUE SCAILQUIN/SCAILQUINSTRAAT", "latitude": "50.849761", "fulladdress": "MADOU - RUE SCAILQUIN/SCAILQUINSTRAAT  ", "open": "1", "number": "57", "longitude": "4.369356"}, {"bonus": "0", "name": "055 - BOTANIQUE/KRUIDTUIN", "address": "BOTANIQUE/KRUIDTUIN - AVENUE GALILEE/GALILEELAAN", "latitude": "50.853248", "fulladdress": "BOTANIQUE/KRUIDTUIN - AVENUE GALILEE/GALILEELAAN  ", "open": "1", "number": "55", "longitude": "4.366188"}, {"bonus": "0", "name": "006 - GARE CENTRALE/CENTRAAL STATION", "address": "GARE CENTRALE/CENTRAAL STATION - BLD DE L'IMPERATRICE/KEIZERINLAAN", "latitude": "50.845333", "fulladdress": "GARE CENTRALE/CENTRAAL STATION - BLD DE L'IMPERATRICE/KEIZERINLAAN  ", "open": "1", "number": "6", "longitude": "4.356475"}, {"bonus": "0", "name": "051 - MIDI FONSNY/ZUID FONSNY", "address": "MIDI FONSNY/ZUID FONSNY - RUE D'ANGLETERRE / ENGELANDSTRAAT", "latitude": "50.835699", "fulladdress": "MIDI FONSNY/ZUID FONSNY - RUE D'ANGLETERRE / ENGELANDSTRAAT  ", "open": "1", "number": "51", "longitude": "4.338826"}, {"bonus": "0", "name": "052 - SAINCTELETTE", "address": "SAINCTELETTE - PLACE SAINCTELETTE/SAINCTELETTEPLEIN", "latitude": "50.859212", "fulladdress": "SAINCTELETTE - PLACE SAINCTELETTE/SAINCTELETTEPLEIN  ", "open": "1", "number": "52", "longitude": "4.34551"}, {"bonus": "0", "name": "050 - RIBAUCOURT", "address": "RIBAUCOURT - BLD LEOPOLD II / LEOPOLD II-LAAN 121-123", "latitude": "50.860862", "fulladdress": "RIBAUCOURT - BLD LEOPOLD II / LEOPOLD II-LAAN 121-123  ", "open": "1", "number": "50", "longitude": "4.339182"}, {"bonus": "0", "name": "054 - TOUR ET TAXIS/THURN&TAXIS", "address": "TOUR ET TAXIS/THURN&TAXIS - RUE PICARD/ PICARDSTRAAT 3", "latitude": "50.863032", "fulladdress": "TOUR ET TAXIS/THURN&TAXIS - RUE PICARD/ PICARDSTRAAT 3  ", "open": "1", "number": "54", "longitude": "4.34766"}, {"bonus": "0", "name": "076 - PLACE VAN MEENEN/VAN MEENENPLEIN", "address": "PLACE VAN MEENEN/VAN MEENENPLEIN - AV PAUL DEJAER (FACE 35 - 39) / PAUL DEJAERLAAN (TEGENOVER 35 - 39)", "latitude": "50.825749", "fulladdress": "PLACE VAN MEENEN/VAN MEENENPLEIN - AV PAUL DEJAER (FACE 35 - 39) / PAUL DEJAERLAAN (TEGENOVER 35 - 39)  ", "open": "1", "number": "76", "longitude": "4.345165"}, {"bonus": "0", "name": "065 - PARVIS DE ST GILLES", "address": "PARVIS DE ST GILLES/ST-GILLISVOORPLEIN - CHAUSSEE DE WATERLOO/ WATERLOOSESTEENWEG 65-69", "latitude": "50.829985", "fulladdress": "PARVIS DE ST GILLES/ST-GILLISVOORPLEIN - CHAUSSEE DE WATERLOO/ WATERLOOSESTEENWEG 65-69  ", "open": "1", "number": "65", "longitude": "4.344557"}, {"bonus": "0", "name": "074 - PLACE LOIX/LOIXPLEIN", "address": "PLACE LOIX/LOIXPLEIN - RUE BERCKMANS/ BERCKMANSSTRAAT 78 - 84", "latitude": "50.831936", "fulladdress": "PLACE LOIX/LOIXPLEIN - RUE BERCKMANS/ BERCKMANSSTRAAT 78 - 84  ", "open": "1", "number": "74", "longitude": "4.353037"}, {"bonus": "0", "name": "019 - PLACE MORICHAR/MORICHARPLEIN", "address": "PLACE MORICHAR / MORICHARPLEIN - RUE DES ETUDIANTS/ STUDENTENSTRAAT 32 - 34", "latitude": "50.827955", "fulladdress": "PLACE MORICHAR / MORICHARPLEIN - RUE DES ETUDIANTS/ STUDENTENSTRAAT 32 - 34  ", "open": "1", "number": "19", "longitude": "4.347791"}, {"bonus": "0", "name": "059 - PLACE ST-JOSSE/ST JOOSTPLEIN", "address": "PLACE ST-JOSSE/ST-JOOSTPLEIN  -  RUE WILLEMS (FACE 5 - 11) / WILLEMSSTRAAT (TEGENOVER 5 - 11)", "latitude": "50.849681", "fulladdress": "PLACE ST-JOSSE/ST-JOOSTPLEIN  -  RUE WILLEMS (FACE 5 - 11) / WILLEMSSTRAAT (TEGENOVER 5 - 11)  ", "open": "1", "number": "59", "longitude": "4.375312"}, {"bonus": "0", "name": "060 - ST-LAZARE/ST LAZARUS", "address": "ST-LAZARE/SINT-LAZARUS   -   BLD SAINT-LAZARE/SINT-LAZARUSLAAN 4 -10", "latitude": "50.856714", "fulladdress": "ST-LAZARE/SINT-LAZARUS   -   BLD SAINT-LAZARE/SINT-LAZARUSLAAN 4 -10  ", "open": "1", "number": "60", "longitude": "4.362106"}, {"bonus": "0", "name": "096 - HOTEL PRESIDENT/PRESIDENT HOTEL", "address": "HOTEL PRESIDENT/PRESIDENT HOTEL - BOULEVARD DU ROI ALBERT II/KONING ALBERT-II LAAN", "latitude": "50.863875", "fulladdress": "HOTEL PRESIDENT/PRESIDENT HOTEL - BOULEVARD DU ROI ALBERT II/KONING ALBERT-II LAAN  ", "open": "1", "number": "96", "longitude": "4.358708"}, {"bonus": "0", "name": "095 - PLACE BOCKSTAEL/BOCKSTAELPLAATS", "address": "PLACE BOCKSTAEL/BOCKSTAELPLAATS - BLD EMILE BOCKSTAEL/EMILE BOCKSTAELLAAN 254", "latitude": "50.87808", "fulladdress": "PLACE BOCKSTAEL/BOCKSTAELPLAATS - BLD EMILE BOCKSTAEL/EMILE BOCKSTAELLAAN 254  ", "open": "1", "number": "95", "longitude": "4.34793"}, {"bonus": "0", "name": "097 - KARREVELD", "address": "KARREVELD - CHAUSSEE DE GAND/ GENTSESTEENWEG 1-3", "latitude": "50.858058", "fulladdress": "KARREVELD - CHAUSSEE DE GAND/ GENTSESTEENWEG 1-3  ", "open": "1", "number": "97", "longitude": "4.318689"}, {"bonus": "0", "name": "094 - DUCHESSE DE BRABANT/HERTOGIN VAN BRABANT", "address": "DUCHESSE DE BRABANT/HERTOGIN VAN BRABANT - RUE DE BIRMINGHAM / BIRMINGHAMSTRAAT", "latitude": "50.849215", "fulladdress": "DUCHESSE DE BRABANT/HERTOGIN VAN BRABANT - RUE DE BIRMINGHAM / BIRMINGHAMSTRAAT  ", "open": "1", "number": "94", "longitude": "4.329184"}, {"bonus": "0", "name": "098 - CIMETIERE/KERKHOF", "address": "CIMETIERE/KERKHOF - BLD METTEWIE/METTEWIELAAN 40 INTERSECTION CHAUSSEE DE GAND/GENTSESTEENWEEG", "latitude": "50.85904", "fulladdress": "CIMETIERE/KERKHOF - BLD METTEWIE/METTEWIELAAN 40 INTERSECTION CHAUSSEE DE GAND/GENTSESTEENWEEG  ", "open": "1", "number": "98", "longitude": "4.312402"}, {"bonus": "0", "name": "081 - PONT BOCKSTAEL/BRUG BOCKSTAEL", "address": "PONT BOCKSTAEL/BRUG BOCKSTAEL - BLD EMILE BOCKSTAEL/EMILE BOCKSTAELLAAN 5", "latitude": "50.870259", "fulladdress": "PONT BOCKSTAEL/BRUG BOCKSTAEL - BLD EMILE BOCKSTAEL/EMILE BOCKSTAELLAAN 5  ", "open": "1", "number": "81", "longitude": "4.343195"}, {"bonus": "0", "name": "191 - ARTAN", "address": "RUE CLAYS", "latitude": "50.853973", "fulladdress": "RUE CLAYS  ", "open": "1", "number": "191", "longitude": "4.38374"}, {"bonus": "0", "name": "194 - STUYVENBERG", "address": "AVENUE HOUBA DE STROOPER LAAN 30-32", "latitude": "50.885885", "fulladdress": "AVENUE HOUBA DE STROOPER LAAN 30-32  ", "open": "1", "number": "194", "longitude": "4.342003"}, {"bonus": "0", "name": "195 - WESTLAND SHOPPING", "address": "WESTLAND SHOPPING - BD SYLVAIN DUPUIS / SYLVAIN DUPUIS LAAN", "latitude": "50.8377", "fulladdress": "WESTLAND SHOPPING - BD SYLVAIN DUPUIS / SYLVAIN DUPUIS LAAN  ", "open": "1", "number": "195", "longitude": "4.288726"}, {"bonus": "0", "name": "196 - PRINCE DE LIEGE / PRINS VAN LUIK", "address": "PRINCE DE LIEGE / PRINS VAN LUIK - CHEE DE NINOVE (FACE 629) / NINOOFSESTEENWEG (TEGENOVER 629)", "latitude": "50.846874", "fulladdress": "PRINCE DE LIEGE / PRINS VAN LUIK - CHEE DE NINOVE (FACE 629) / NINOOFSESTEENWEG (TEGENOVER 629)  ", "open": "1", "number": "196", "longitude": "4.29817"}, {"bonus": "0", "name": "197 - DE SMET", "address": "DE SMET - PLACE HENRI DE SMET / HENRI DE SMETPLEIN", "latitude": "50.848255", "fulladdress": "DE SMET - PLACE HENRI DE SMET / HENRI DE SMETPLEIN  ", "open": "1", "number": "197", "longitude": "4.314854"}, {"bonus": "0", "name": "198 - SCHEUT", "address": "SCHEUT - CHEE DE NINOVE (FACE 441) / NINOOFSESTEENWEG (TEGENOVER 441)", "latitude": "50.847649", "fulladdress": "SCHEUT - CHEE DE NINOVE (FACE 441) / NINOOFSESTEENWEG (TEGENOVER 441)  ", "open": "1", "number": "198", "longitude": "4.307714"}, {"bonus": "0", "name": "199 - HENRI REY", "address": "HENRI REY - BD FELIX PAULSEN / FELIX PAULSENLAAN 3-5-7-9", "latitude": "50.843693", "fulladdress": "HENRI REY - BD FELIX PAULSEN / FELIX PAULSENLAAN 3-5-7-9  ", "open": "1", "number": "199", "longitude": "4.304986"}, {"bonus": "0", "name": "200 - VETERANS COLONIAUX / KOLONIALE VETERANEN", "address": "VETERANS COLONIAUX / KOLONIALE VETERANEN - BD JULES GRAINDOR / JULES GRAINDORLAAN", "latitude": "50.843967", "fulladdress": "VETERANS COLONIAUX / KOLONIALE VETERANEN - BD JULES GRAINDOR / JULES GRAINDORLAAN  ", "open": "1", "number": "200", "longitude": "4.313537"}, {"bonus": "0", "name": "201 - PETERBOS", "address": "PETERBOS - BD MARIA GROENINCKX DE MAY (FACE 26) / MARIA GROENINCKX DE MAYLAAN (TEGENOVER 26)", "latitude": "50.842667", "fulladdress": "PETERBOS - BD MARIA GROENINCKX DE MAY (FACE 26) / MARIA GROENINCKX DE MAYLAAN (TEGENOVER 26)  ", "open": "1", "number": "201", "longitude": "4.295939"}, {"bonus": "0", "name": "202 - AUMALE", "address": "AUMALE - RUE D'AUMALE / AUMALESTRAAT 339-341", "latitude": "50.839554", "fulladdress": "AUMALE - RUE D'AUMALE / AUMALESTRAAT 339-341  ", "open": "1", "number": "202", "longitude": "4.312311"}, {"bonus": "0", "name": "203 - DEMOSTHENE", "address": "DEMOSTHENE - BD PRINCE DE LIEGE / PRINS VAN LUIKLAAN 216-218-220", "latitude": "50.84045", "fulladdress": "DEMOSTHENE - BD PRINCE DE LIEGE / PRINS VAN LUIKLAAN 216-218-220  ", "open": "1", "number": "203", "longitude": "4.305055"}, {"bonus": "0", "name": "204 - DUPUIS", "address": "DUPUIS - BD SYLVAIN DUPUIS / SYLVAIN DUPUISLAAN 209-211-213", "latitude": "50.837326", "fulladdress": "DUPUIS - BD SYLVAIN DUPUIS / SYLVAIN DUPUISLAAN 209-211-213  ", "open": "1", "number": "204", "longitude": "4.293932"}, {"bonus": "0", "name": "205 - DE LINDE", "address": "DE LINDE - PLACE DE LINDE 22 / DE LINDEPLEIN 22", "latitude": "50.835503", "fulladdress": "DE LINDE - PLACE DE LINDE 22 / DE LINDEPLEIN 22  ", "open": "1", "number": "205", "longitude": "4.299573"}, {"bonus": "0", "name": "206 - SAINT-GUIDON / SINT GUIDO", "address": "SAINT GUIDON / SINT GUIDO - AV PAUL JANSON (FACE AU 34-28) / PAUL JANSONLAAN (TEGENOVER 34-28)", "latitude": "50.834755", "fulladdress": "SAINT GUIDON / SINT GUIDO - AV PAUL JANSON (FACE AU 34-28) / PAUL JANSONLAAN (TEGENOVER 34-28)  ", "open": "1", "number": "206", "longitude": "4.305962"}, {"bonus": "0", "name": "207 - BIESTEBROECK / BIESTEBROEK", "address": "BIESTEBROECK / BISTEBROEK - CHEE DE MONS (FACE AU 518-526) / BERGENSESTEENWEG (TEGENOVER 518-526)", "latitude": "50.833424", "fulladdress": "BIESTEBROECK / BISTEBROEK - CHEE DE MONS (FACE AU 518-526) / BERGENSESTEENWEG (TEGENOVER 518-526)  ", "open": "1", "number": "207", "longitude": "4.313378"}, {"bonus": "0", "name": "208 - MELBA", "address": "MELBA - AV NELLIE MELBA (FACE 1 a 9) / NELLIE MELBALAAN (TEGENOVER 1 tot 9)", "latitude": "50.832565", "fulladdress": "MELBA - AV NELLIE MELBA (FACE 1 a 9) / NELLIE MELBALAAN (TEGENOVER 1 tot 9)  ", "open": "1", "number": "208", "longitude": "4.294311"}, {"bonus": "0", "name": "209 - VEEWEYDE / VEEWEIDE", "address": "VEEWEYDE / VEEWEIDE - BD THEO LAMBERT (FACE 5 a 9) / THEO LAMBERTLAAN (TEGENOVER ( tot 9)", "latitude": "50.828602", "fulladdress": "VEEWEYDE / VEEWEIDE - BD THEO LAMBERT (FACE 5 a 9) / THEO LAMBERTLAAN (TEGENOVER ( tot 9)  ", "open": "1", "number": "209", "longitude": "4.299621"}, {"bonus": "0", "name": "210 - MARIUS RENARD", "address": "MARIUS RENARD - AV CHARLES DE TOLLENAERE (FACE 60) - CHARLES DE TOLLENAERELAAN (TEGENOVER 60)", "latitude": "50.827873", "fulladdress": "MARIUS RENARD - AV CHARLES DE TOLLENAERE (FACE 60) - CHARLES DE TOLLENAERELAAN (TEGENOVER 60)  ", "open": "1", "number": "210", "longitude": "4.288707"}, {"bonus": "0", "name": "211 - METRO CERIA", "address": "METRO CERIA - CH DE MONS (FACE AU 1292 a 1284) / BERGENSESTEENWEG (TEGENOVER 1292 TOT 1284)", "latitude": "50.816528", "fulladdress": "METRO CERIA - CH DE MONS (FACE AU 1292 a 1284) / BERGENSESTEENWEG (TEGENOVER 1292 TOT 1284)  ", "open": "1", "number": "211", "longitude": "4.290832"}, {"bonus": "0", "name": "212 - THEO LAMBERT", "address": "THEO LAMBERT - BD THEO LAMBERT (FACE 60) / THEO LAMBERT LAAN (TEGENOVER 60)", "latitude": "50.827106", "fulladdress": "THEO LAMBERT - BD THEO LAMBERT (FACE 60) / THEO LAMBERT LAAN (TEGENOVER 60)  ", "open": "1", "number": "212", "longitude": "4.2925"}, {"bonus": "0", "name": "213 - LA ROUE / HET RAD", "address": "LA ROUE / HET RAD - CH DE MONS 1100-1106 / BERGENSESTEENWEG 1100-1106", "latitude": "50.821018", "fulladdress": "LA ROUE / HET RAD - CH DE MONS 1100-1106 / BERGENSESTEENWEG 1100-1106  ", "open": "1", "number": "213", "longitude": "4.293865"}, {"bonus": "0", "name": "214 - CAMPUS CERIA / CAMPUS VAN CERIA", "address": "CAMPUS CERIA / CAMPUS VAN CERIA - AV EMILE GRYSON (FACE 6 a 10) / EMILE GRYSONLAAN (TEGENOVER 6 tot 10)", "latitude": "50.816002", "fulladdress": "CAMPUS CERIA / CAMPUS VAN CERIA - AV EMILE GRYSON (FACE 6 a 10) / EMILE GRYSONLAAN (TEGENOVER 6 tot 10)  ", "open": "1", "number": "214", "longitude": "4.295121"}, {"bonus": "0", "name": "215 - CUREGHEM / KUREGEM", "address": "CUREGHEM / KUREGEM - AV RAYMOND VANDER BRUGGEN / VANDEN BRUGGENLAAN", "latitude": "50.836864", "fulladdress": "CUREGHEM / KUREGEM - AV RAYMOND VANDER BRUGGEN / VANDEN BRUGGENLAAN  ", "open": "1", "number": "215", "longitude": "4.317321"}, {"bonus": "0", "name": "217 - BIZET", "address": "BIZET - PLACE BIZET (face 11 a 19) / BIZETPLEIN (TEGENOVER 11 tot 19)", "latitude": "50.824913", "fulladdress": "BIZET - PLACE BIZET (face 11 a 19) / BIZETPLEIN (TEGENOVER 11 tot 19)  ", "open": "1", "number": "217", "longitude": "4.297248"}, {"bonus": "0", "name": "218 - DELACROIX", "address": "DELACROIX - RUE LEON DELACROIX 1 a 7 / LEON DELACROIXSTRAAT 1 tot 7", "latitude": "50.845928", "fulladdress": "DELACROIX - RUE LEON DELACROIX 1 a 7 / LEON DELACROIXSTRAAT 1 tot 7  ", "open": "1", "number": "218", "longitude": "4.323812"}, {"bonus": "0", "name": "219 - VAN HELLEMONT", "address": "VAN HELLEMONT - RUE DE NEERPEDE 372-374 / NEERPEDESTRAAT 372-374 (FERMEE SUITE ACCIDENT)", "latitude": "50.829491", "fulladdress": "VAN HELLEMONT - RUE DE NEERPEDE 372-374 / NEERPEDESTRAAT 372-374 (FERMEE SUITE ACCIDENT)  ", "open": "1", "number": "219", "longitude": "4.286006"}, {"bonus": "0", "name": "220 - LUTHER KING", "address": "LUTHER KING - BD MAURICE CAREME 30 / MAURICE CAREMELAAN 30", "latitude": "50.825706", "fulladdress": "LUTHER KING - BD MAURICE CAREME 30 / MAURICE CAREMELAAN 30  ", "open": "1", "number": "220", "longitude": "4.288377"}, {"bonus": "0", "name": "221 - CURIE", "address": "CURIE - SQUARE MARIE CURIE (FACE 30) / MARIE CURIE SQUARE (TEGENOVER 30)", "latitude": "50.821846", "fulladdress": "CURIE - SQUARE MARIE CURIE (FACE 30) / MARIE CURIE SQUARE (TEGENOVER 30)  ", "open": "1", "number": "221", "longitude": "4.284394"}, {"bonus": "0", "name": "223 - WIELS / WIELS", "address": "WIELS / WIELS - AV.WIELEMANS CEUPPENS/LAAN 7", "latitude": "50.824055", "fulladdress": "WIELS / WIELS - AV.WIELEMANS CEUPPENS/LAAN 7  ", "open": "1", "number": "223", "longitude": "4.326376"}, {"bonus": "0", "name": "224 - ROCHEFORT", "address": "ROCHEFORT - AV. WIELEMANS CEUPPENS LAAN 184-190", "latitude": "50.824352", "fulladdress": "ROCHEFORT - AV. WIELEMANS CEUPPENS LAAN 184-190  ", "open": "1", "number": "224", "longitude": "4.334465"}, {"bonus": "1", "name": "225 - PLACE ALBERT PLEIN", "address": "PLACE ALBERT/PLEIN - PLACE ALBERT / ALBERTPLEIN", "latitude": "50.821117", "fulladdress": "PLACE ALBERT/PLEIN - PLACE ALBERT / ALBERTPLEIN  ", "open": "1", "number": "225", "longitude": "4.342008"}, {"bonus": "0", "name": "226 - UNION/UNIE", "address": "UNION/UNIE - BD DE LA DEUXIEME ARMEE BRITANNIQUE / BRITS TWEEDELEGERLAAN 8 - 2", "latitude": "50.819939", "fulladdress": "UNION/UNIE - BD DE LA DEUXIEME ARMEE BRITANNIQUE / BRITS TWEEDELEGERLAAN 8 - 2  ", "open": "1", "number": "226", "longitude": "4.325277"}, {"bonus": "0", "name": "237 - PARVIS ST ANTOINE/ST ANTONIUS VOORPLEIN", "address": "PARVIS ST ANTOINE / ST ANTONIUS VOORPLEIN - RUE DE MERODE/MERODESTRAAT 290", "latitude": "50.827972", "fulladdress": "PARVIS ST ANTOINE / ST ANTONIUS VOORPLEIN - RUE DE MERODE/MERODESTRAAT 290  ", "open": "1", "number": "237", "longitude": "4.330705"}, {"bonus": "0", "name": "239 - DARWIN", "address": "DARWIN - AV. BRUGMANN / BRUGMANNLAAN 139-147", "latitude": "50.8187714", "fulladdress": "DARWIN - AV. BRUGMANN / BRUGMANNLAAN 139-147  ", "open": "1", "number": "239", "longitude": "4.350961"}, {"bonus": "1", "name": "228 - ALTITUDE CENT / HOOGTE HONDERD", "address": "ALTITUDE CENT / HOOGTE HONDERD - PLACE DE L'ALTITUDE 100 (FACE 31) / HOOGTE HONDERDPLEIN (TEGENOVER 31)", "latitude": "50.816525", "fulladdress": "ALTITUDE CENT / HOOGTE HONDERD - PLACE DE L'ALTITUDE 100 (FACE 31) / HOOGTE HONDERDPLEIN (TEGENOVER 31)  ", "open": "1", "number": "228", "longitude": "4.336212"}, {"bonus": "0", "name": "229 - ZAMAN FOREST NATIONAL/ZAMAN VORST NATIONAL", "address": "ZAMAN FOREST NATIONAL/ZAMAN VORST NATIONAL - AV VAN VOLXEM 2 / VAN VOLXEMLAAN 2", "latitude": "50.813587", "fulladdress": "ZAMAN FOREST NATIONAL/ZAMAN VORST NATIONAL - AV VAN VOLXEM 2 / VAN VOLXEMLAAN 2  ", "open": "1", "number": "229", "longitude": "4.324681"}, {"bonus": "0", "name": "230 - BERKENDAEL / BERKENDAAL", "address": "BERKENDAEL / BERKENDAAL - AVENUE ALBERT / ALBERTLAAN 134", "latitude": "50.818382", "fulladdress": "BERKENDAEL / BERKENDAAL - AVENUE ALBERT / ALBERTLAAN 134  ", "open": "1", "number": "230", "longitude": "4.346061"}, {"bonus": "0", "name": "232 - DOMAINE / DOMEIN", "address": "DOMAINE / DOMEIN - AV DU DOMAINE (FACE 150) / DOMEINELAAN (VOOR 150)", "latitude": "50.810875", "fulladdress": "DOMAINE / DOMEIN - AV DU DOMAINE (FACE 150) / DOMEINELAAN (VOOR 150)  ", "open": "1", "number": "232", "longitude": "4.329158"}, {"bonus": "0", "name": "233 - PARC DUDEN / DUDEN PARK", "address": "PARC DUDEN / DUDEN PARK - AV VICTOR ROUSSEAU FACE 132 / VICTOR ROUSSEAULAAN VOOR 132", "latitude": "50.813858", "fulladdress": "PARC DUDEN / DUDEN PARK - AV VICTOR ROUSSEAU FACE 132 / VICTOR ROUSSEAULAAN VOOR 132  ", "open": "1", "number": "233", "longitude": "4.330992"}, {"bonus": "0", "name": "234 - ST DENIS / ST DENIJS", "address": "ST DENIS / ST DENIJS - PLACE ST DENIS FACE 68 / ST DENIJSPLAATS VOOR 68", "latitude": "50.809799", "fulladdress": "ST DENIS / ST DENIJS - PLACE ST DENIS FACE 68 / ST DENIJSPLAATS VOOR 68  ", "open": "1", "number": "234", "longitude": "4.317546"}, {"bonus": "0", "name": "235 - FOREST NATIONAL / VORST NATIONAAL", "address": "FOREST NATIONAL / VORST NATIONAAL - AV VICTOR ROUSSEAU DVT FOREST NATIONAL / VICTOR ROUSSEAU LAAN VOOR VORST NATIONAAL", "latitude": "50.810085", "fulladdress": "FOREST NATIONAL / VORST NATIONAAL - AV VICTOR ROUSSEAU DVT FOREST NATIONAL / VICTOR ROUSSEAU LAAN VOOR VORST NATIONAAL  ", "open": "1", "number": "235", "longitude": "4.324864"}, {"bonus": "0", "name": "236-MAISON COMMUNALE DE FOREST/VORST GEMEENTEHUIS", "address": "MAISON COMMUNALE DE FOREST / VORST GEMEENTEHUIS - RUE SAINT DENIS 4 / SINT DENIJSSTRAAT 4", "latitude": "50.812328", "fulladdress": "MAISON COMMUNALE DE FOREST / VORST GEMEENTEHUIS - RUE SAINT DENIS 4 / SINT DENIJSSTRAAT 4  ", "open": "1", "number": "236", "longitude": "4.318885"}, {"bonus": "0", "name": "238 - UNION SAINT-GILLOISE / SINT-GILLIS UNIE", "address": "UNION SAINT-GILLOISE / SINT-GILLIS UNIE - CH DE BRUXELLES 366-362 / BRUSSELSESTEENWEG 366-362", "latitude": "50.820278", "fulladdress": "UNION SAINT-GILLOISE / SINT-GILLIS UNIE - CH DE BRUXELLES 366-362 / BRUSSELSESTEENWEG 366-362  ", "open": "1", "number": "238", "longitude": "4.330802"}, {"bonus": "1", "name": "240 - VANDERKINDERE", "address": "VANDERKINDERE - RUE VANDERKINDERE/VANDERKINDERESTRAAT N\u00b0 194", "latitude": "50.813923", "fulladdress": "VANDERKINDERE - RUE VANDERKINDERE/VANDERKINDERESTRAAT N\u00b0 194  ", "open": "1", "number": "240", "longitude": "4.347472"}, {"bonus": "0", "name": "241 - STATUAIRES/BEELDHOUWWERK", "address": "STATUAIRES/BEELDHOUWWERK - AVENUE DE FRE/DE FRELAAN", "latitude": "50.803917", "fulladdress": "STATUAIRES/BEELDHOUWWERK - AVENUE DE FRE/DE FRELAAN  ", "open": "1", "number": "241", "longitude": "4.349116"}, {"bonus": "0", "name": "242 - MAISON COMMUNALE D'UCCLE/GEMEENTEHUIS UKKEL", "address": "MAISON COMMUNAKLE D'UCCLE/GEMEENTEHUIS UKKEL - PLACE JEAN VANDER ELST / JEAN VANDER ELST PLEIN", "latitude": "50.803791", "fulladdress": "MAISON COMMUNAKLE D'UCCLE/GEMEENTEHUIS UKKEL - PLACE JEAN VANDER ELST / JEAN VANDER ELST PLEIN  ", "open": "1", "number": "242", "longitude": "4.333321"}, {"bonus": "0", "name": "243 - RONDPOINT CHURCHILL/ROTONDE CHURCHILL", "address": "RONDPOINT CHURCHILL/ROTONDE CHURCHILL - AV MESSIDOR FACE 338/MESSIDORLAAN TEGENOVER 338", "latitude": "50.811752", "fulladdress": "RONDPOINT CHURCHILL/ROTONDE CHURCHILL - AV MESSIDOR FACE 338/MESSIDORLAAN TEGENOVER 338  ", "open": "1", "number": "243", "longitude": "4.353424"}, {"bonus": "0", "name": "246 - GATTI DE GAMOND", "address": "GATTI DE GAMMOND - RUE DE STALLE PROLONGEE/STALLE STRAAT 160", "latitude": "50.796471", "fulladdress": "GATTI DE GAMMOND - RUE DE STALLE PROLONGEE/STALLE STRAAT 160  ", "open": "1", "number": "246", "longitude": "4.328415"}, {"bonus": "0", "name": "247 - STALLE", "address": "STALLE - RUE DE STALLE PROLONGEE/VERLENGDE STALLESTRAAT", "latitude": "50.79586", "fulladdress": "STALLE - RUE DE STALLE PROLONGEE/VERLENGDE STALLESTRAAT  ", "open": "1", "number": "247", "longitude": "4.32058"}, {"bonus": "0", "name": "248 - PRINCE DE LIGNE / PRINCE LIJN", "address": "PRINCE DE LIGNE / PRINCE LIJN - CHEE DE WATERLOO FACE 1170 / WATERLOOSESTEENWEG VOOR 1170", "latitude": "50.795704", "fulladdress": "PRINCE DE LIGNE / PRINCE LIJN - CHEE DE WATERLOO FACE 1170 / WATERLOOSESTEENWEG VOOR 1170  ", "open": "1", "number": "248", "longitude": "4.373631"}, {"bonus": "0", "name": "249 - SAINT-JOB/SINT-JOB", "address": "SAINT-JOB/SINT JOB - PLACE SAINT JOB/SINT-JOB PLEIN", "latitude": "50.794186", "fulladdress": "SAINT-JOB/SINT JOB - PLACE SAINT JOB/SINT-JOB PLEIN  ", "open": "1", "number": "249", "longitude": "4.366336"}, {"bonus": "0", "name": "251 - PAOLA", "address": "PAOLA - RUE VICTOR ALLARD FACE 222 / VICTOR ALLARD STRAAT VOOR 222", "latitude": "50.800377", "fulladdress": "PAOLA - RUE VICTOR ALLARD FACE 222 / VICTOR ALLARD STRAAT VOOR 222  ", "open": "1", "number": "251", "longitude": "4.326985"}, {"bonus": "0", "name": "252 - BEMPT", "address": "BEMPT - CH DE NEERSTALLE DEVANT 333-335-337 / NEERSTALLESESTEENWEG 333-335-337", "latitude": "50.802563", "fulladdress": "BEMPT - CH DE NEERSTALLE DEVANT 333-335-337 / NEERSTALLESESTEENWEG 333-335-337  ", "open": "1", "number": "252", "longitude": "4.315701"}, {"bonus": "0", "name": "285 - COGHEN", "address": "COGHEN - AV COGHEN 1 A 5 / COGHENSTRAAT 1 TOT 5", "latitude": "50.813469", "fulladdress": "COGHEN - AV COGHEN 1 A 5 / COGHENSTRAAT 1 TOT 5  ", "open": "1", "number": "285", "longitude": "4.338951"}, {"bonus": "0", "name": "286 - BENS", "address": "BENS - CHEE D'ALSEMBERG DEVANT LE 548 / ALSEMBERSESTEENWEG VOOR 548", "latitude": "50.80814", "fulladdress": "BENS - CHEE D'ALSEMBERG DEVANT LE 548 / ALSEMBERSESTEENWEG VOOR 548  ", "open": "1", "number": "286", "longitude": "4.336901"}, {"bonus": "0", "name": "287 - FLOREAL", "address": "FLOREAL - AV BRUGMANN 359 / BRUGMANNLAAN 359", "latitude": "50.809334", "fulladdress": "FLOREAL - AV BRUGMANN 359 / BRUGMANNLAAN 359  ", "open": "1", "number": "287", "longitude": "4.345243"}, {"bonus": "0", "name": "288 - HOUZEAU", "address": "HOUZEAU - AVENUE HOUZEAU 10 / HOUZEAULAAN 10", "latitude": "50.802711", "fulladdress": "HOUZEAU - AVENUE HOUZEAU 10 / HOUZEAULAAN 10  ", "open": "1", "number": "288", "longitude": "4.358842"}, {"bonus": "0", "name": "289 - SQ.J.MARLOW", "address": "SQ.J.MARLOW - SQUARE MARLOW FACE 3-4-5 / MARLOWSQUARE VOOR 3-4-5", "latitude": "50.801594", "fulladdress": "SQ.J.MARLOW - SQUARE MARLOW FACE 3-4-5 / MARLOWSQUARE VOOR 3-4-5  ", "open": "1", "number": "289", "longitude": "4.340061"}, {"bonus": "0", "name": "290 - GARE DE CALEVOET / KALEVOET STATION", "address": "GARE DE CALEVOET / KALEVOET STATION - CHEE D'ALSEMBERG / ALSEMBERGSESTEENWEG 1006", "latitude": "50.79158", "fulladdress": "GARE DE CALEVOET / KALEVOET STATION - CHEE D'ALSEMBERG / ALSEMBERGSESTEENWEG 1006  ", "open": "1", "number": "290", "longitude": "4.332669"}, {"bonus": "0", "name": "291 - DECROLY", "address": "DECROLY - RUE GATTI DE GAMMOND / GATTI DE GAMMOND STRAAT", "latitude": "50.804661", "fulladdress": "DECROLY - RUE GATTI DE GAMMOND / GATTI DE GAMMOND STRAAT  ", "open": "1", "number": "291", "longitude": "4.327886"}, {"bonus": "0", "name": "292 - RITTWEGER", "address": "RITTWEGER - RUE RITTWEGER 6-8 / RITTWEGERSTRAAT 6-8", "latitude": "50.797739", "fulladdress": "RITTWEGER - RUE RITTWEGER 6-8 / RITTWEGERSTRAAT 6-8  ", "open": "1", "number": "292", "longitude": "4.336083"}, {"bonus": "0", "name": "244 - BOIS DE LA CAMBRE", "address": "BOIS DE LA CAMBRE - AV WINSTON CHURCHIL 254 / WINSTON CHURCHILLAAN 254", "latitude": "50.81218", "fulladdress": "BOIS DE LA CAMBRE - AV WINSTON CHURCHIL 254 / WINSTON CHURCHILLAAN 254  ", "open": "1", "number": "244", "longitude": "4.368321"}, {"bonus": "0", "name": "192 - AUBERGE DE JEUNESSE", "address": "AUBERGE DE JEUNESSE - RUE DELAUNOY/STRAAT ,67", "latitude": "50.851562", "fulladdress": "AUBERGE DE JEUNESSE - RUE DELAUNOY/STRAAT ,67  ", "open": "1", "number": "192", "longitude": "4.332924"}, {"bonus": "0", "name": "193 - GARE DE L'OUEST", "address": "GARE DE L'OUEST - CHEE DE NINOVE 207,209 / NINOOFSESTEENWEG 207,209", "latitude": "50.848866", "fulladdress": "GARE DE L'OUEST - CHEE DE NINOVE 207,209 / NINOOFSESTEENWEG 207,209  ", "open": "1", "number": "193", "longitude": "4.320628"}, {"bonus": "0", "name": "245 - HAMOIR", "address": "HAMOIR - CHEE DE WATERLOO/WATERLOOSESTEENWEG 1143", "latitude": "50.798988", "fulladdress": "HAMOIR - CHEE DE WATERLOO/WATERLOOSESTEENWEG 1143  ", "open": "1", "number": "245", "longitude": "4.375581"}, {"bonus": "0", "name": "253 - REINE FABIOLA / KONINGIN FABIOLA", "address": "REINE FABIOLA / KONINGIN FABIOLA - AV PIETER GODEFROY / PIETER GODEFROYLAAN", "latitude": "50.872475", "fulladdress": "REINE FABIOLA / KONINGIN FABIOLA - AV PIETER GODEFROY / PIETER GODEFROYLAAN  ", "open": "1", "number": "253", "longitude": "4.314266"}, {"bonus": "0", "name": "254 - BASILIQUE / BASILIEK", "address": "BASILIQUE / BASILIEK - AV JACQUES SERMON / JACUES SERMONLAAN", "latitude": "50.867393", "fulladdress": "BASILIQUE / BASILIEK - AV JACQUES SERMON / JACUES SERMONLAAN  ", "open": "1", "number": "254", "longitude": "4.320344"}, {"bonus": "0", "name": "255 - SACRE-COEUR GANSHOREN / HEILIGE HART GANSHOR", "address": "SACRE-COEUR GANSHOREN / HEILIGE HART GANSHOREN - AV CHARLESQUINT,9 / KEISERKARELLAAN,9", "latitude": "50.868011", "fulladdress": "SACRE-COEUR GANSHOREN / HEILIGE HART GANSHOREN - AV CHARLESQUINT,9 / KEISERKARELLAAN,9  ", "open": "1", "number": "255", "longitude": "4.313968"}, {"bonus": "0", "name": "256 - VAN OVERBEKE", "address": "VAN OVERBEKE / AV VAN OVERBEKE / VAN OVERBEKELAAN", "latitude": "50.874767", "fulladdress": "VAN OVERBEKE / AV VAN OVERBEKE / VAN OVERBEKELAAN  ", "open": "1", "number": "256", "longitude": "4.308977"}, {"bonus": "0", "name": "257 - PL MARGHERITE D'AUTRICHE / MARGARETHA VAN OO", "address": "PLACE MARGHERITE D'AUTRICHE / MARGARETHA VAN OOSTENRIJKPLEIN", "latitude": "50.872169", "fulladdress": "PLACE MARGHERITE D'AUTRICHE / MARGARETHA VAN OOSTENRIJKPLEIN  ", "open": "1", "number": "257", "longitude": "4.298216"}, {"bonus": "0", "name": "258 - LIBERTE", "address": "LIBERTE - AV DE LA LIBERTE, 44 / VRIJHEIDSLAAN,44", "latitude": "50.862152", "fulladdress": "LIBERTE - AV DE LA LIBERTE, 44 / VRIJHEIDSLAAN,44  ", "open": "1", "number": "258", "longitude": "4.323353"}, {"bonus": "0", "name": "259 - NOVILLE", "address": "NOVILLE - SQ NOVILLE", "latitude": "50.859608", "fulladdress": "NOVILLE - SQ NOVILLE  ", "open": "1", "number": "259", "longitude": "4.33409"}, {"bonus": "0", "name": "260 - TRITON", "address": "TRITON - AVENUE DES ANCIENS COMBATTANTS - PISCINE / OUD-STRIJDERSLAAN - ZWEMBAD", "latitude": "50.86702", "fulladdress": "TRITON - AVENUE DES ANCIENS COMBATTANTS - PISCINE / OUD-STRIJDERSLAAN - ZWEMBAD  ", "open": "1", "number": "260", "longitude": "4.406995"}, {"bonus": "0", "name": "261 - CONSCIENCE", "address": "CONSCIENCE - AVENUE HENRI CONSCIENCE / HENRI CONSCIENCELAAN 83", "latitude": "50.86879", "fulladdress": "CONSCIENCE - AVENUE HENRI CONSCIENCE / HENRI CONSCIENCELAAN 83  ", "open": "1", "number": "261", "longitude": "4.399587"}, {"bonus": "0", "name": "262 - PLACE DE LA PAIX/VREDEPLAIN", "address": "PLACE DE LA PAIX / VREDEPLAIN - PLACE DE LA PAIX FACE 24 / VREDEPLEIN VOOR 24", "latitude": "50.87693", "fulladdress": "PLACE DE LA PAIX / VREDEPLAIN - PLACE DE LA PAIX FACE 24 / VREDEPLEIN VOOR 24  ", "open": "1", "number": "262", "longitude": "4.400722"}, {"bonus": "0", "name": "263 - MAISON COMMUNALE D'EVERE", "address": "MAISON COMMUNALE D'EVERE/ EVERE GEMEENTEHUIS - SQUARE HOEDEMAEKERS / HOEDEMAEKERSESQUARE 7-8", "latitude": "50.872002", "fulladdress": "MAISON COMMUNALE D'EVERE/ EVERE GEMEENTEHUIS - SQUARE HOEDEMAEKERS / HOEDEMAEKERSESQUARE 7-8  ", "open": "1", "number": "263", "longitude": "4.403286"}, {"bonus": "0", "name": "264-NOTRE DAME/ONZE LIEVE VROUW", "address": "NOTRE DAME / ONZE LIEVE VROUW - AV NOTRE DAME 53 A 61 / ONZE LIEVE VROUWLAAN 53 TOT 61", "latitude": "50.870983", "fulladdress": "NOTRE DAME / ONZE LIEVE VROUW - AV NOTRE DAME 53 A 61 / ONZE LIEVE VROUWLAAN 53 TOT 61  ", "open": "1", "number": "264", "longitude": "4.397506"}, {"bonus": "0", "name": "265 - EVERE SHOPPING", "address": "EVERE SHOPPING - AV DES LOISIRS / VRIJETIJDSLAAN", "latitude": "50.867241", "fulladdress": "EVERE SHOPPING - AV DES LOISIRS / VRIJETIJDSLAAN  ", "open": "1", "number": "265", "longitude": "4.40287"}, {"bonus": "0", "name": "266 - GARE BORDET STATION", "address": "GARE BORDET / BORDET STATION - CHAUSSEE D'HAECHT FACE 1147 / HAACHTSESTEENWEG VOOR 1147", "latitude": "50.877552", "fulladdress": "GARE BORDET / BORDET STATION - CHAUSSEE D'HAECHT FACE 1147 / HAACHTSESTEENWEG VOOR 1147  ", "open": "1", "number": "266", "longitude": "4.409136"}, {"bonus": "0", "name": "267 - GENEVE", "address": "GENEVE - RUE DE GENEVE /  GENEVESTRAT 12", "latitude": "50.86171", "fulladdress": "GENEVE - RUE DE GENEVE /  GENEVESTRAT 12  ", "open": "1", "number": "267", "longitude": "4.403147"}, {"bonus": "0", "name": "268 - DUNANT", "address": "DUNANT - AV HENRI DUNANT / HENRI DUNANTLAAN", "latitude": "50.862808", "fulladdress": "DUNANT - AV HENRI DUNANT / HENRI DUNANTLAAN  ", "open": "1", "number": "268", "longitude": "4.410791"}, {"bonus": "0", "name": "269 - CICERON", "address": "CICERON - CHAUSSE DE LOUVAIN / LEUVENSESTEENWEG1166", "latitude": "50.860859", "fulladdress": "CICERON - CHAUSSE DE LOUVAIN / LEUVENSESTEENWEG1166  ", "open": "1", "number": "269", "longitude": "4.421375"}, {"bonus": "0", "name": "270 - DE PADUWA", "address": "DE PADUWA - AVENUE DES ANCIENS COMBATTANTS / OUD-STRIJDERSLAAN 1", "latitude": "50.859127", "fulladdress": "DE PADUWA - AVENUE DES ANCIENS COMBATTANTS / OUD-STRIJDERSLAAN 1  ", "open": "1", "number": "270", "longitude": "4.414406"}, {"bonus": "0", "name": "271 - DUBOIS", "address": "DUBOIS - BD EMILE MACHTENS/LAAN 102-104", "latitude": "50.851158", "fulladdress": "DUBOIS - BD EMILE MACHTENS/LAAN 102-104  ", "open": "1", "number": "271", "longitude": "4.309591"}, {"bonus": "0", "name": "272 - SCHEUTBOS", "address": "SCHEUTBOS - BD METTEWIE/LAAN FACE/VOOR 419", "latitude": "50.850845", "fulladdress": "SCHEUTBOS - BD METTEWIE/LAAN FACE/VOOR 419  ", "open": "1", "number": "272", "longitude": "4.299659"}, {"bonus": "0", "name": "273 - TAMARIS", "address": "TAMARIS - BD METTEWIE LAAN VOOR/FACE 71", "latitude": "50.854824", "fulladdress": "TAMARIS - BD METTEWIE LAAN VOOR/FACE 71  ", "open": "1", "number": "273", "longitude": "4.306209"}, {"bonus": "0", "name": "274 - CORHAY", "address": "CORAY - CHEE DE GAND DEVANT 579-587 GENTSESTEENWEG VOOR 579-587", "latitude": "50.86002", "fulladdress": "CORAY - CHEE DE GAND DEVANT 579-587 GENTSESTEENWEG VOOR 579-587  ", "open": "1", "number": "274", "longitude": "4.307502"}, {"bonus": "0", "name": "298 - HALL DES SPORTS", "address": "HALL DES SPORTS - AV DES 9 PROVINCES / 9 PROVINCIES LAAN / RUE VANDERVEKEN/STRAAT", "latitude": "50.877037", "fulladdress": "HALL DES SPORTS - AV DES 9 PROVINCES / 9 PROVINCIES LAAN / RUE VANDERVEKEN/STRAAT  ", "open": "1", "number": "298", "longitude": "4.300847"}, {"bonus": "0", "name": "299 - SAINT-ADRIEN", "address": "SAINT-ADRIEN - AV DU PESAGE N\u00b021", "latitude": "50.80941", "fulladdress": "SAINT-ADRIEN - AV DU PESAGE N\u00b021  ", "open": "1", "number": "299", "longitude": "4.386541"}, {"bonus": "0", "name": "300 - GARE DE BOONDAEL STATION", "address": "GARE DE BOONDAEL STATION - AV DE LA FORET 23 / VORSTLAAN 23", "latitude": "50.801434", "fulladdress": "GARE DE BOONDAEL STATION - AV DE LA FORET 23 / VORSTLAAN 23  ", "open": "1", "number": "300", "longitude": "4.392831"}, {"bonus": "0", "name": "301 - MARIE-JOSE", "address": "MARIE-JOSE - PLACE MARIE-JOSE FACE 6 / MARIE-JOSE PLAATS VOOR 6", "latitude": "50.806271", "fulladdress": "MARIE-JOSE - PLACE MARIE-JOSE FACE 6 / MARIE-JOSE PLAATS VOOR 6  ", "open": "1", "number": "301", "longitude": "4.387673"}, {"bonus": "0", "name": "303 - VIEUX TILLEUL", "address": "VIEUX TILLEUL - AV DU BOIS DE LA CAMBRE FACE 113", "latitude": "50.807903", "fulladdress": "VIEUX TILLEUL - AV DU BOIS DE LA CAMBRE FACE 113  ", "open": "1", "number": "303", "longitude": "4.392756"}, {"bonus": "0", "name": "275 - VERSAILLES", "address": "VERSAILLES - AVENUE DE VERSAILLES / VERSAILLESLAAN 125", "latitude": "50.896278", "fulladdress": "VERSAILLES - AVENUE DE VERSAILLES / VERSAILLESLAAN 125  ", "open": "1", "number": "275", "longitude": "4.372427"}, {"bonus": "0", "name": "276 - CROIX DE GUERRES / OORLOGSKRUISEN", "address": "CROIX DE GUERRES / OORLOGSKRUISEN - AVENUE DES CROIX DE GUERRE / OORLOGSKRUISENLAAN 116", "latitude": "50.889748", "fulladdress": "CROIX DE GUERRES / OORLOGSKRUISEN - AVENUE DES CROIX DE GUERRE / OORLOGSKRUISENLAAN 116  ", "open": "1", "number": "276", "longitude": "4.380755"}, {"bonus": "0", "name": "277 - VAN PRAET", "address": "VAN PRAET - AVENUE VAN PRAET / VAN PRAETLAAN", "latitude": "50.881588", "fulladdress": "VAN PRAET - AVENUE VAN PRAET / VAN PRAETLAAN  ", "open": "1", "number": "277", "longitude": "4.373817"}, {"bonus": "0", "name": "278 - STADE / STADIUM", "address": "STADE / STADIUM - AVENUE HOUBA DE STROOPER / HOUBA DE STROOPERLAAN", "latitude": "50.894005", "fulladdress": "STADE / STADIUM - AVENUE HOUBA DE STROOPER / HOUBA DE STROOPERLAAN  ", "open": "1", "number": "278", "longitude": "4.331902"}, {"bonus": "0", "name": "279 - HOUBA BRUGMANN", "address": "HOUBA BRUGMANN - AVENUE HOUBA DE STROOPER / HOUBA DE STROOPERLAAN", "latitude": "50.890181", "fulladdress": "HOUBA BRUGMANN - AVENUE HOUBA DE STROOPER / HOUBA DE STROOPERLAAN  ", "open": "1", "number": "279", "longitude": "4.336962"}, {"bonus": "0", "name": "280 - HEYSEL / HEISEL", "address": "HEYSEL / HEISEL - AVENUE DE L'IMPERATRICE CHARLOTTE / KEIZERIN CHARLOTTELAAN", "latitude": "50.897522", "fulladdress": "HEYSEL / HEISEL - AVENUE DE L'IMPERATRICE CHARLOTTE / KEIZERIN CHARLOTTELAAN  ", "open": "1", "number": "280", "longitude": "4.334831"}, {"bonus": "0", "name": "281 - ATOMNIUM", "address": "ATOMNIUM - BOULEVARD DU CENTENAIRE / EEUWFEESTLAAN", "latitude": "50.895485", "fulladdress": "ATOMNIUM - BOULEVARD DU CENTENAIRE / EEUWFEESTLAAN  ", "open": "1", "number": "281", "longitude": "4.341311"}, {"bonus": "0", "name": "282 - CENTENAIRE / EEUWFEEST", "address": "CENTENAIRE / EEUWFEEST - BOULEVARD DU CENTENAIRE / EEUWFEESTLAAN", "latitude": "50.890522", "fulladdress": "CENTENAIRE / EEUWFEEST - BOULEVARD DU CENTENAIRE / EEUWFEESTLAAN  ", "open": "1", "number": "282", "longitude": "4.345112"}, {"bonus": "0", "name": "283 - PISCINE / ZWEMBAD", "address": "PISCINE / ZWEMBAD - RUE DE LOMBARTZYDE / LOMBARDSIJDESTRAAT", "latitude": "50.893158", "fulladdress": "PISCINE / ZWEMBAD - RUE DE LOMBARTZYDE / LOMBARDSIJDESTRAAT  ", "open": "1", "number": "283", "longitude": "4.376931"}, {"bonus": "0", "name": "284 - CLAESSENS", "address": "CLAESSENS - RUE CLAESSENS FACE 7 / CLAESSENSSTRAAT VOOR 7", "latitude": "50.873085", "fulladdress": "CLAESSENS - RUE CLAESSENS FACE 7 / CLAESSENSSTRAAT VOOR 7  ", "open": "1", "number": "284", "longitude": "4.35859"}, {"bonus": "0", "name": "293 - KEYM", "address": "KEYM - AVENUE DU COLVERT", "latitude": "50.810528", "fulladdress": "KEYM - AVENUE DU COLVERT  ", "open": "1", "number": "293", "longitude": "4.40231"}, {"bonus": "0", "name": "294 - WIENER", "address": "WIENER - PLACE WIENER 2 / WIENERPLAATS 2", "latitude": "50.798344", "fulladdress": "WIENER - PLACE WIENER 2 / WIENERPLAATS 2  ", "open": "1", "number": "294", "longitude": "4.419014"}, {"bonus": "0", "name": "295 - COIN DU BALAI", "address": "COIN DU BALAI - AV DE LA FORESTERIE", "latitude": "50.793682", "fulladdress": "COIN DU BALAI - AV DE LA FORESTERIE  ", "open": "1", "number": "295", "longitude": "4.418497"}, {"bonus": "0", "name": "296 - GARE DE BOITSFORT", "address": "GARE DE BOITSFORT / BOSVOORDE STATION - CHEE DE LA HULPE DVT 187 / HULPSESTEENWEG 187", "latitude": "50.79528", "fulladdress": "GARE DE BOITSFORT / BOSVOORDE STATION - CHEE DE LA HULPE DVT 187 / HULPSESTEENWEG 187  ", "open": "1", "number": "296", "longitude": "4.40832"}, {"bonus": "0", "name": "297 - TEN REUKEN", "address": "TEN REUKEN - BD DU SOUVERAIN FACE 76", "latitude": "50.804455", "fulladdress": "TEN REUKEN - BD DU SOUVERAIN FACE 76  ", "open": "1", "number": "297", "longitude": "4.426369"}, {"bonus": "0", "name": "304 - ARAUCARIA", "address": "ARAUCARIA - AV DES CROIX DE FEU DEV 221C", "latitude": "50.893497", "fulladdress": "ARAUCARIA - AV DES CROIX DE FEU DEV 221C  ", "open": "1", "number": "304", "longitude": "4.363297"}, {"bonus": "0", "name": "305 - PETER BENOIT", "address": "PETER BENOIT - PLACE PETER BENOIT PLAATS 2-4", "latitude": "50.895592", "fulladdress": "PETER BENOIT - PLACE PETER BENOIT PLAATS 2-4  ", "open": "1", "number": "305", "longitude": "4.387965"}, {"bonus": "0", "name": "306 - HEMBEEK", "address": "HEMBEEK - ANGLE AV DES CROIX DE FEU / VUURKRUISENLAAN 7-9", "latitude": "50.889603", "fulladdress": "HEMBEEK - ANGLE AV DES CROIX DE FEU / VUURKRUISENLAAN 7-9  ", "open": "1", "number": "306", "longitude": "4.373967"}, {"bonus": "0", "name": "308 - TIVOLI", "address": "TIVOLI - RUE DE MOLENBEEK CROISEMENT RUE DE WAUTIER/ KRUISPUNT MOLENBEEKSTRAAT-DE WAUTIERSTRAAT", "latitude": "50.872265", "fulladdress": "TIVOLI - RUE DE MOLENBEEK CROISEMENT RUE DE WAUTIER/ KRUISPUNT MOLENBEEKSTRAAT-DE WAUTIERSTRAAT  ", "open": "1", "number": "308", "longitude": "4.352158"}, {"bonus": "0", "name": "309 - CENTENAIRE", "address": "CENTENAIRE - SQUARE DU CENTENAIRE", "latitude": "50.87521", "fulladdress": "CENTENAIRE - SQUARE DU CENTENAIRE  ", "open": "1", "number": "309", "longitude": "4.317954"}, {"bonus": "0", "name": "307 - KAREL BOGAERT", "address": "KAREL BOGAERT - BD EMILE BOCKSTAEL / EMILE BOCKSTAELLAAN 307", "latitude": "50.881889", "fulladdress": "KAREL BOGAERT - BD EMILE BOCKSTAEL / EMILE BOCKSTAELLAAN 307  ", "open": "1", "number": "307", "longitude": "4.347448"}, {"bonus": "0", "name": "250 - SAINTE-ELISABETH", "address": "SAINTE-ELISABETH - AV DE FRE CROISEMENT CH DE WATERLOO / DEFRELAAN - WATERLOOSESTEENWEG", "latitude": "50.80534", "fulladdress": "SAINTE-ELISABETH - AV DE FRE CROISEMENT CH DE WATERLOO / DEFRELAAN - WATERLOOSESTEENWEG  ", "open": "1", "number": "250", "longitude": "4.372123"}, {"bonus": "0", "name": "310 - SAINT VINCENT / SINT VINCENT", "address": "SAINT VINCENT / SINT VINCENT - RUE STROOBANTS/STROOBANTSSTRAAT", "latitude": "50.88058", "fulladdress": "SAINT VINCENT / SINT VINCENT - RUE STROOBANTS/STROOBANTSSTRAAT  ", "open": "1", "number": "310", "longitude": "4.401674"}, {"bonus": "0", "name": "017 - COMTE DE FLANDRE/GRAAF VAN VLAANDEREN", "address": "COMTE DE FLANDRE/GRAAF VAN VLAANDEREN - RUE SAINTE-MARIE / SINT-MARIASTRAAT", "latitude": "50.855358", "fulladdress": "COMTE DE FLANDRE/GRAAF VAN VLAANDEREN - RUE SAINTE-MARIE / SINT-MARIASTRAAT  ", "open": "1", "number": "17", "longitude": "4.339465"}, {"bonus": "0", "name": "063 - JULES CESAR", "address": "JULES CESAR - AVENUE DE TERVUREN DEVANT / TERVURENLAAN VOOR 278", "latitude": "50.834705", "fulladdress": "JULES CESAR - AVENUE DE TERVUREN DEVANT / TERVURENLAAN VOOR 278  ", "open": "1", "number": "63", "longitude": "4.421643"}, {"bonus": "0", "name": "126 - FABRY", "address": "FABRY - BOULEVARD DE LA WOLUWE / WOLUWELAAN 28", "latitude": "50.837288", "fulladdress": "FABRY - BOULEVARD DE LA WOLUWE / WOLUWELAAN 28  ", "open": "1", "number": "126", "longitude": "4.43462"}, {"bonus": "0", "name": "128 - MUSEE DU TRAM", "address": "MUSEE DU TRAM - AVENUE DE TERVUREN / TERVURENLAAN", "latitude": "50.832355", "fulladdress": "MUSEE DU TRAM - AVENUE DE TERVUREN / TERVURENLAAN  ", "open": "1", "number": "128", "longitude": "4.432358"}, {"bonus": "0", "name": "001 - LEOPOLD II", "address": "LEOPOLD II - AVENUE DE TERVUREN FACE / TERVURENLAAN VOOR 218", "latitude": "50.836304", "fulladdress": "LEOPOLD II - AVENUE DE TERVUREN FACE / TERVURENLAAN VOOR 218  ", "open": "1", "number": "1", "longitude": "4.41505"}, {"bonus": "0", "name": "015 - MONTGOMERY", "address": "MONTGOMERY - AVENUE DE TERVUREN / TERVURENLAAN 136-138", "latitude": "50.837036", "fulladdress": "MONTGOMERY - AVENUE DE TERVUREN / TERVURENLAAN 136-138  ", "open": "1", "number": "15", "longitude": "4.406826"}, {"bonus": "0", "name": "318 - CARDINAL MERCIER / KARDINAAL MERCIER", "address": "CARDINAL MERCIER / KARDINAAL MERCIER - PLACE CARDINAL MERCIER / KARDINAAL MERCIER PLEIN 6", "latitude": "50.880539", "fulladdress": "CARDINAL MERCIER / KARDINAAL MERCIER - PLACE CARDINAL MERCIER / KARDINAAL MERCIER PLEIN 6  ", "open": "1", "number": "318", "longitude": "4.32823"}, {"bonus": "0", "name": "130 - ROND POINT DU SOUVERAIN", "address": "ROND POINT DU SOUVERAIN - BOULEVARD DU SOUVERAIN FACE / VORSTLAAN VOOR 207", "latitude": "50.820244", "fulladdress": "ROND POINT DU SOUVERAIN - BOULEVARD DU SOUVERAIN FACE / VORSTLAAN VOOR 207  ", "open": "1", "number": "130", "longitude": "4.430081"}, {"bonus": "0", "name": "131 - JARDIN MASSART", "address": "JARDIN MASSART - AV HERMANN DEBROUXLAAN", "latitude": "50.81329", "fulladdress": "JARDIN MASSART - AV HERMANN DEBROUXLAAN  ", "open": "1", "number": "131", "longitude": "4.434751"}, {"bonus": "0", "name": "155 - LES MARONNIERS", "address": "LES MARONNIERS - CHEE DE WAVRE / WAVERSESTEENWEG FACE / VOOR 1181 (ECOLE DES MARRONNIERS)", "latitude": "50.822639", "fulladdress": "LES MARONNIERS - CHEE DE WAVRE / WAVERSESTEENWEG FACE / VOOR 1181 (ECOLE DES MARRONNIERS)  ", "open": "1", "number": "155", "longitude": "4.402894"}, {"bonus": "0", "name": "311 - DELTA", "address": "DELTA - BD DES INVALIDES / INVALIDENLAAN", "latitude": "50.818456", "fulladdress": "DELTA - BD DES INVALIDES / INVALIDENLAAN  ", "open": "1", "number": "311", "longitude": "4.40349"}, {"bonus": "0", "name": "312 - CENTRE CULTUREL / CULTUREEL CENTRUM", "address": "CENTRE CULTUREL / CULTUREEL CENTRUM - BD DU SOUVERAIN FACE 282 / VORSTLAAN VOOR 282", "latitude": "50.816948", "fulladdress": "CENTRE CULTUREL / CULTUREEL CENTRUM - BD DU SOUVERAIN FACE 282 / VORSTLAAN VOOR 282  ", "open": "1", "number": "312", "longitude": "4.426551"}, {"bonus": "0", "name": "313 - DEMEY", "address": "DEMEY - INTERSECTION BD INVALIDENLAAN / AV LOUIS DEHOUXLAAN", "latitude": "50.814958", "fulladdress": "DEMEY - INTERSECTION BD INVALIDENLAAN / AV LOUIS DEHOUXLAAN  ", "open": "1", "number": "313", "longitude": "4.416987"}, {"bonus": "0", "name": "315 - SACRE COEUR AUDERGHEM / HEILIGE HART OUDERGH", "address": "SACRE COEUR AUDERGHEM / HEILIGE HART OUDERGHEM - SQUARE DU SACREE C", "latitude": "50.810322", "fulladdress": "SACRE COEUR AUDERGHEM / HEILIGE HART OUDERGHEM - SQUARE DU SACREE C  ", "open": "1", "number": "315", "longitude": "4.435789"}, {"bonus": "0", "name": "314 - HERMANN DEBROUX", "address": "HERMANN DEBROUX - AV HERMANN DEBROUXLAAN", "latitude": "50.812325", "fulladdress": "HERMANN DEBROUX - AV HERMANN DEBROUXLAAN  ", "open": "1", "number": "314", "longitude": "4.427962"}, {"bonus": "0", "name": "317 - GEYSKENS", "address": "GEYSKENS - AVENUE ISIDORE GEYSKENSLAAN FACE/TEGENOVER 108", "latitude": "50.819546", "fulladdress": "GEYSKENS - AVENUE ISIDORE GEYSKENSLAAN FACE/TEGENOVER 108  ", "open": "1", "number": "317", "longitude": "4.421198"}, {"bonus": "0", "name": "132 - DEUX CHAUSSEES", "address": "DEUX CHAUSSEES - CHEE DE TERVURENLAAN FACE/TEGENOVER 93A", "latitude": "50.816338", "fulladdress": "DEUX CHAUSSEES - CHEE DE TERVURENLAAN FACE/TEGENOVER 93A  ", "open": "1", "number": "132", "longitude": "4.433895"}, {"bonus": "0", "name": "320 - UZ BRUSSEL", "address": "UZ BRUSSEL - AVENUE DE L'ARBRE BALLON / DIKKE-BEUKLAAN", "latitude": "50.887001", "fulladdress": "UZ BRUSSEL - AVENUE DE L'ARBRE BALLON / DIKKE-BEUKLAAN  ", "open": "1", "number": "320", "longitude": "4.310701"}, {"bonus": "0", "name": "321 - SACRE-C", "address": "SACRE-C", "latitude": "50.884251", "fulladdress": "SACRE-C  ", "open": "1", "number": "321", "longitude": "4.330287"}, {"bonus": "0", "name": "322 - PARC DU ROI BAUDOUIN / BOUDEWIJNPARK", "address": "PARC DU ROI BAUDOUIN / BOUDEWIJNPARK - RUE JEAN BAPTISTE MOYENSSTRAAT 400", "latitude": "50.889523", "fulladdress": "PARC DU ROI BAUDOUIN / BOUDEWIJNPARK - RUE JEAN BAPTISTE MOYENSSTRAAT 400  ", "open": "1", "number": "322", "longitude": "4.315953"}, {"bonus": "0", "name": "319 - ANCIENNE BARRIERE / OUDE AFSPANNINGSPLEIN", "address": "ANCIENNE BARRIERE / OUDE AFSPANNINGSPLEIN - PLACE DE L'ANCIENNE BARRIERE FACE 10", "latitude": "50.885197", "fulladdress": "ANCIENNE BARRIERE / OUDE AFSPANNINGSPLEIN - PLACE DE L'ANCIENNE BARRIERE FACE 10  ", "open": "1", "number": "319", "longitude": "4.317648"}, {"bonus": "0", "name": "222 - MERCKX", "address": "MERCKX - ROUTE DE LENNIK / LENNIKSEBAAN", "latitude": "50.817162", "fulladdress": "MERCKX - ROUTE DE LENNIK / LENNIKSEBAAN  ", "open": "1", "number": "222", "longitude": "4.280012"}, {"bonus": "0", "name": "216 - ARISTIDE BRIAND", "address": "ARISTIDE BRIAND - CH DE MONS 718 a 720 / BERGENSESTEENWEG 718 tot 720", "latitude": "50.828873", "fulladdress": "ARISTIDE BRIAND - CH DE MONS 718 a 720 / BERGENSESTEENWEG 718 tot 720  ", "open": "1", "number": "216", "longitude": "4.303918"}, {"bonus": "0", "name": "324 - THOMAS BALIS", "address": "THOMAS BALIS - CHEE DE WAVRE 1395 a 1403 / WAVERSESTEENWEG 1395 TOT 1403", "latitude": "50.819641", "fulladdress": "THOMAS BALIS - CHEE DE WAVRE 1395 a 1403 / WAVERSESTEENWEG 1395 TOT 1403  ", "open": "1", "number": "324", "longitude": "4.412926"}, {"bonus": "0", "name": "325 - HANKAR", "address": "HANKAR - CHEE DE WAVRE / WAVERSESTEENWEG 1208", "latitude": "50.821735", "fulladdress": "HANKAR - CHEE DE WAVRE / WAVERSESTEENWEG 1208  ", "open": "1", "number": "325", "longitude": "4.405622"}, {"bonus": "0", "name": "231 - KERSBEEK", "address": "KERSBEEK - AV KERSBEEK 107 / KERSBEEKLAAN 107", "latitude": "50.805801", "fulladdress": "KERSBEEK - AV KERSBEEK 107 / KERSBEEKLAAN 107  ", "open": "1", "number": "231", "longitude": "4.3194"}, {"bonus": "0", "name": "323 - CARENE", "address": "CARENE - AV LEON GROSJEAN 79", "latitude": "50.855186", "fulladdress": "CARENE - AV LEON GROSJEAN 79  ", "open": "1", "number": "323", "longitude": "4.415246"}, {"bonus": "0", "name": "326 - ADEPS", "address": "ADEPS - CHEE DE WAVRE / WAVERSESTEENWEG 2057", "latitude": "50.809406", "fulladdress": "ADEPS - CHEE DE WAVRE / WAVERSESTEENWEG 2057  ", "open": "1", "number": "326", "longitude": "4.443777"}, {"bonus": "0", "name": "327 - SIBELGA", "address": "SIBELGA - QUAI DES USINES, 16", "latitude": "50.874082", "fulladdress": "SIBELGA - QUAI DES USINES, 16  ", "open": "1", "number": "327", "longitude": "4.362205"}, {"bonus": "0", "name": "345 - 3 TILLEULS", "address": "3 TILLEULS - AV DES ORTOLANS 2", "latitude": "50.802675", "fulladdress": "3 TILLEULS - AV DES ORTOLANS 2  ", "open": "1", "number": "345", "longitude": "4.412073"}, {"bonus": "0", "name": "343 - VANDENDRIESCH", "address": "VANDENDRIESCH - RUE J-B VANDENDRIESCH 22-24", "latitude": "50.861788", "fulladdress": "VANDENDRIESCH - RUE J-B VANDENDRIESCH 22-24  ", "open": "1", "number": "343", "longitude": "4.292913"}, {"bonus": "0", "name": "344 - BETHLEEM", "address": "BETHLEEM - PLACE BETHLEEM", "latitude": "50.830179", "fulladdress": "BETHLEEM - PLACE BETHLEEM  ", "open": "1", "number": "344", "longitude": "4.337958"}, {"bonus": "0", "name": "342 - MAISON COMMUNALE BERCHEM ST AGHATE", "address": "MAISON COMMUNALE BERCHEM ST AGHATE - AVENUE DU ROI ALBERT DVT 38", "latitude": "50.864761", "fulladdress": "MAISON COMMUNALE BERCHEM ST AGHATE - AVENUE DU ROI ALBERT DVT 38  ", "open": "1", "number": "342", "longitude": "4.294429"}, {"bonus": "0", "name": "329 - ROODEBEEK", "address": "ROODEBEEK - AV PAUL HYMANS", "latitude": "50.847617", "fulladdress": "ROODEBEEK - AV PAUL HYMANS  ", "open": "1", "number": "329", "longitude": "4.436084"}, {"bonus": "0", "name": "330 - VANDERVELDE", "address": "VANDERVELDE - AVENUE EMILE VANDERVELDE 90", "latitude": "50.847546", "fulladdress": "VANDERVELDE - AVENUE EMILE VANDERVELDE 90  ", "open": "1", "number": "330", "longitude": "4.450015"}, {"bonus": "0", "name": "332 - VERGOTE", "address": "VERGOTE - BD BRAND WHITLOK", "latitude": "50.845229", "fulladdress": "VERGOTE - BD BRAND WHITLOK  ", "open": "1", "number": "332", "longitude": "4.404311"}, {"bonus": "0", "name": "333 - TRACTEBEL", "address": "TRACTEBEL - AV MARCEL THIRY FACE AU N\u00b093", "latitude": "50.856582", "fulladdress": "TRACTEBEL - AV MARCEL THIRY FACE AU N\u00b093  ", "open": "1", "number": "333", "longitude": "4.430988"}, {"bonus": "0", "name": "334 - MARCEL THIRY", "address": "MARCEL THIRY - AV MARCEL THIRY FACE 23", "latitude": "50.855593", "fulladdress": "MARCEL THIRY - AV MARCEL THIRY FACE 23  ", "open": "1", "number": "334", "longitude": "4.439625"}, {"bonus": "0", "name": "335 - THIRY", "address": "THIRY - BD DE LA WOLUWE DVT 100", "latitude": "50.854231", "fulladdress": "THIRY - BD DE LA WOLUWE DVT 100  ", "open": "1", "number": "335", "longitude": "4.444034"}, {"bonus": "0", "name": "336 - KRAAINEM", "address": "KRAAINEM - AV DE WEZEMBEEK 7A", "latitude": "50.848496", "fulladdress": "KRAAINEM - AV DE WEZEMBEEK 7A  ", "open": "1", "number": "336", "longitude": "4.459897"}, {"bonus": "0", "name": "338 - UCL", "address": "UCL - AVENUE E.MOUNIER,40 UCL", "latitude": "50.851073", "fulladdress": "UCL - AVENUE E.MOUNIER,40 UCL  ", "open": "1", "number": "338", "longitude": "4.452706"}, {"bonus": "0", "name": "339 - MEUDON", "address": "MEUDON - SQUARE MEUDON", "latitude": "50.845365", "fulladdress": "MEUDON - SQUARE MEUDON  ", "open": "1", "number": "339", "longitude": "4.41788"}, {"bonus": "0", "name": "331 - GEORGES HENRI", "address": "GEORGES HENRI - AV GEORGES HENRI", "latitude": "50.842319", "fulladdress": "GEORGES HENRI - AV GEORGES HENRI  ", "open": "1", "number": "331", "longitude": "4.406295"}, {"bonus": "0", "name": "341 - VOOT", "address": "VOOT - BD DE LA WOLUWE DVT 58", "latitude": "50.840942", "fulladdress": "VOOT - BD DE LA WOLUWE DVT 58  ", "open": "1", "number": "341", "longitude": "4.436529"}, {"bonus": "0", "name": "328 - HEYDENBERG", "address": "HEYDENBERG - AV HEYDENBERG FACE 99-101", "latitude": "50.849988", "fulladdress": "HEYDENBERG - AV HEYDENBERG FACE 99-101  ", "open": "1", "number": "328", "longitude": "4.417064"}, {"bonus": "1", "name": "351 - ULB", "address": "ULB - AV BUYL CROISEMENT AV DE L'UNIVERSITE (DEVANT L'ULB)", "latitude": "50.813724", "fulladdress": "ULB - AV BUYL CROISEMENT AV DE L'UNIVERSITE (DEVANT L'ULB)  ", "open": "1", "number": "351", "longitude": "4.384205"}, {"bonus": "0", "name": "346 - RECHERCHE", "address": "RECHERCHE - ROUTE DE LENNIK N\u00b0788", "latitude": "50.81591", "fulladdress": "RECHERCHE - ROUTE DE LENNIK N\u00b0788  ", "open": "1", "number": "346", "longitude": "4.2737"}, {"bonus": "0", "name": "347 - ERASME", "address": "ERASME - ROUTE DE LENNIK N\u00b0808", "latitude": "50.81482", "fulladdress": "ERASME - ROUTE DE LENNIK N\u00b0808  ", "open": "1", "number": "347", "longitude": "4.26534"}, {"bonus": "0", "name": "349 - FONSNY", "address": "FONSNY - AVENUE FONSNY EN FACE DES DEBOUCHES DES RUES COENRAETS ET J. CLAES", "latitude": "50.833444", "fulladdress": "FONSNY - AVENUE FONSNY EN FACE DES DEBOUCHES DES RUES COENRAETS ET J. CLAES  ", "open": "1", "number": "349", "longitude": "4.334857"}, {"bonus": "0", "name": "350 - VERHEYLEWEGHEN", "address": "VERHEYLEWEGHEN - PLACE VERHEYLEWEGHEN DVT LES N\u00b032-34", "latitude": "50.848184", "fulladdress": "VERHEYLEWEGHEN - PLACE VERHEYLEWEGHEN DVT LES N\u00b032-34  ", "open": "1", "number": "350", "longitude": "4.425621"}, {"bonus": "0", "name": "357 - AVIATION", "address": "AVIATION - INTERSECTION AVENUE DE L'AVIATION ET AVENUE ORBAN", "latitude": "50.834634", "fulladdress": "AVIATION - INTERSECTION AVENUE DE L'AVIATION ET AVENUE ORBAN  ", "open": "1", "number": "357", "longitude": "4.456746"}, {"bonus": "0", "name": "355 - PARNASSE", "address": "PARNASSE - RUE DU TRONE N\u00b066 (CLOS PARNASSE)", "latitude": "50.837714", "fulladdress": "PARNASSE - RUE DU TRONE N\u00b066 (CLOS PARNASSE)  ", "open": "1", "number": "355", "longitude": "4.369117"}]